{
"type": "FeatureCollection",
"crs": { "type": "name", "properties": { "name": "urn:ogc:def:crs:OGC:1.3:CRS84" } },
                                                                                
"features": [
{ "type": "Feature", "properties": { "Name": "Wien Ottakring" }, "geometry": { "type": "Point", "coordinates": [ 16.3112, 48.2118 ] } },
{ "type": "Feature", "properties": { "Name": "Wien Heiligenstadt" }, "geometry": { "type": "Point", "coordinates": [ 16.3655, 48.249 ] } },
{ "type": "Feature", "properties": { "Name": "Leoben Hbf" }, "geometry": { "type": "Point", "coordinates": [ 15.0897, 47.3867 ] } },
{ "type": "Feature", "properties": { "Name": "Pernegg" }, "geometry": { "type": "Point", "coordinates": [ 15.3431, 47.3594 ] } },
{ "type": "Feature", "properties": { "Name": "Peggau-Deutschfeistritz" }, "geometry": { "type": "Point", "coordinates": [ 15.3433, 47.2074 ] } },
{ "type": "Feature", "properties": { "Name": "Gratwein-Gratkorn" }, "geometry": { "type": "Point", "coordinates": [ 15.3229, 47.1293 ] } },
{ "type": "Feature", "properties": { "Name": "Graz Hauptbahnhof" }, "geometry": { "type": "Point", "coordinates": [ 15.4165, 47.0724 ] } },
{ "type": "Feature", "properties": { "Name": "Jenbach" }, "geometry": { "type": "Point", "coordinates": [ 11.7783, 47.3884 ] } },
{ "type": "Feature", "properties": { "Name": "Kirchbichl" }, "geometry": { "type": "Point", "coordinates": [ 12.0939, 47.5196 ] } },
{ "type": "Feature", "properties": { "Name": "Wörgl Hbf" }, "geometry": { "type": "Point", "coordinates": [ 12.0606, 47.4915 ] } },
{ "type": "Feature", "properties": { "Name": "Kalwang" }, "geometry": { "type": "Point", "coordinates": [ 14.7465, 47.4236 ] } },
{ "type": "Feature", "properties": { "Name": "Ardning" }, "geometry": { "type": "Point", "coordinates": [ 14.359, 47.5906 ] } },
{ "type": "Feature", "properties": { "Name": "Windischgarsten" }, "geometry": { "type": "Point", "coordinates": [ 14.3269, 47.7154 ] } },
{ "type": "Feature", "properties": { "Name": "Hinterstoder" }, "geometry": { "type": "Point", "coordinates": [ 14.179, 47.7746 ] } },
{ "type": "Feature", "properties": { "Name": "Steyrling" }, "geometry": { "type": "Point", "coordinates": [ 14.1637, 47.8018 ] } },
{ "type": "Feature", "properties": { "Name": "Klaus" }, "geometry": { "type": "Point", "coordinates": [ 14.1551, 47.833 ] } },
{ "type": "Feature", "properties": { "Name": "Micheldorf" }, "geometry": { "type": "Point", "coordinates": [ 14.1263, 47.8832 ] } },
{ "type": "Feature", "properties": { "Name": "Kirchdorf an der Krems" }, "geometry": { "type": "Point", "coordinates": [ 14.1162, 47.9065 ] } },
{ "type": "Feature", "properties": { "Name": "Wartberg an der Krems" }, "geometry": { "type": "Point", "coordinates": [ 14.1216, 47.989 ] } },
{ "type": "Feature", "properties": { "Name": "Rohr-Bad Hall" }, "geometry": { "type": "Point", "coordinates": [ 14.1913, 48.0696 ] } },
{ "type": "Feature", "properties": { "Name": "Kematen a. d. Krems" }, "geometry": { "type": "Point", "coordinates": [ 14.203, 48.113 ] } },
{ "type": "Feature", "properties": { "Name": "Neuhofen an der Krems" }, "geometry": { "type": "Point", "coordinates": [ 14.2385, 48.136 ] } },
{ "type": "Feature", "properties": { "Name": "Traun" }, "geometry": { "type": "Point", "coordinates": [ 14.2537, 48.2254 ] } },
{ "type": "Feature", "properties": { "Name": "Attnang-Puchheim" }, "geometry": { "type": "Point", "coordinates": [ 13.7203, 48.0122 ] } },
{ "type": "Feature", "properties": { "Name": "Gunskirchen" }, "geometry": { "type": "Point", "coordinates": [ 13.9461, 48.1327 ] } },
{ "type": "Feature", "properties": { "Name": "Wels Hbf" }, "geometry": { "type": "Point", "coordinates": [ 14.0265, 48.1659 ] } },
{ "type": "Feature", "properties": { "Name": "Marchtrenk" }, "geometry": { "type": "Point", "coordinates": [ 14.0995, 48.201 ] } },
{ "type": "Feature", "properties": { "Name": "Hainburg an der Donau Kulturfabrik" }, "geometry": { "type": "Point", "coordinates": [ 16.9316, 48.1446 ] } },
{ "type": "Feature", "properties": { "Name": "Marchegg" }, "geometry": { "type": "Point", "coordinates": [ 16.9175, 48.2498 ] } },
{ "type": "Feature", "properties": { "Name": "Scharnitz" }, "geometry": { "type": "Point", "coordinates": [ 11.2668, 47.3919 ] } },
{ "type": "Feature", "properties": { "Name": "Seefeld in Tirol" }, "geometry": { "type": "Point", "coordinates": [ 11.1895, 47.3288 ] } },
{ "type": "Feature", "properties": { "Name": "Reith bei Seefeld" }, "geometry": { "type": "Point", "coordinates": [ 11.2006, 47.301 ] } },
{ "type": "Feature", "properties": { "Name": "Hochzirl" }, "geometry": { "type": "Point", "coordinates": [ 11.2497, 47.281 ] } },
{ "type": "Feature", "properties": { "Name": "Innsbruck Hötting" }, "geometry": { "type": "Point", "coordinates": [ 11.3737, 47.2615 ] } },
{ "type": "Feature", "properties": { "Name": "Innsbruck Westbf" }, "geometry": { "type": "Point", "coordinates": [ 11.3915, 47.2555 ] } },
{ "type": "Feature", "properties": { "Name": "Graz Puntigam" }, "geometry": { "type": "Point", "coordinates": [ 15.4293, 47.0309 ] } },
{ "type": "Feature", "properties": { "Name": "Götzendorf an der Leitha" }, "geometry": { "type": "Point", "coordinates": [ 16.5863, 48.0257 ] } },
{ "type": "Feature", "properties": { "Name": "Graz Ostbahnhof-Messe" }, "geometry": { "type": "Point", "coordinates": [ 15.4481, 47.0537 ] } },
{ "type": "Feature", "properties": { "Name": "Kirchberg in Tirol" }, "geometry": { "type": "Point", "coordinates": [ 12.3091, 47.4489 ] } },
{ "type": "Feature", "properties": { "Name": "Kitzbühel" }, "geometry": { "type": "Point", "coordinates": [ 12.391, 47.4542 ] } },
{ "type": "Feature", "properties": { "Name": "St. Johann in Tirol" }, "geometry": { "type": "Point", "coordinates": [ 12.4308, 47.5196 ] } },
{ "type": "Feature", "properties": { "Name": "Neufeld an der Leitha" }, "geometry": { "type": "Point", "coordinates": [ 16.3813, 47.8685 ] } },
{ "type": "Feature", "properties": { "Name": "Traiskirchen Lokalbahn" }, "geometry": { "type": "Point", "coordinates": [ 16.2907, 48.0154 ] } },
{ "type": "Feature", "properties": { "Name": "Wöllersdorf" }, "geometry": { "type": "Point", "coordinates": [ 16.1785, 47.8613 ] } },
{ "type": "Feature", "properties": { "Name": "Graz Köflacherbahnhof" }, "geometry": { "type": "Point", "coordinates": [ 15.4131, 47.0678 ] } },
{ "type": "Feature", "properties": { "Name": "Nestroyplatz" }, "geometry": { "type": "Point", "coordinates": [ 16.3851, 48.2151 ] } },
{ "type": "Feature", "properties": { "Name": "Vorgartenstraße" }, "geometry": { "type": "Point", "coordinates": [ 16.401, 48.2237 ] } },
{ "type": "Feature", "properties": { "Name": "Donauinsel" }, "geometry": { "type": "Point", "coordinates": [ 16.4113, 48.2292 ] } },
{ "type": "Feature", "properties": { "Name": "Kaisermühlen - VIC" }, "geometry": { "type": "Point", "coordinates": [ 16.4163, 48.2327 ] } },
{ "type": "Feature", "properties": { "Name": "Alte Donau" }, "geometry": { "type": "Point", "coordinates": [ 16.4249, 48.2383 ] } },
{ "type": "Feature", "properties": { "Name": "Kagran" }, "geometry": { "type": "Point", "coordinates": [ 16.4337, 48.2435 ] } },
{ "type": "Feature", "properties": { "Name": "Rennbahnweg" }, "geometry": { "type": "Point", "coordinates": [ 16.4495, 48.2575 ] } },
{ "type": "Feature", "properties": { "Name": "Aderklaaer Straße" }, "geometry": { "type": "Point", "coordinates": [ 16.4515, 48.2634 ] } },
{ "type": "Feature", "properties": { "Name": "Dresdner Straße" }, "geometry": { "type": "Point", "coordinates": [ 16.3802, 48.2374 ] } },
{ "type": "Feature", "properties": { "Name": "Jägerstraße" }, "geometry": { "type": "Point", "coordinates": [ 16.3686, 48.2353 ] } },
{ "type": "Feature", "properties": { "Name": "Nußdorfer Straße" }, "geometry": { "type": "Point", "coordinates": [ 16.3525, 48.2313 ] } },
{ "type": "Feature", "properties": { "Name": "Thaliastraße" }, "geometry": { "type": "Point", "coordinates": [ 16.338, 48.2078 ] } },
{ "type": "Feature", "properties": { "Name": "Josefstädter Straße" }, "geometry": { "type": "Point", "coordinates": [ 16.3392, 48.2115 ] } },
{ "type": "Feature", "properties": { "Name": "Alser Straße" }, "geometry": { "type": "Point", "coordinates": [ 16.3418, 48.2168 ] } },
{ "type": "Feature", "properties": { "Name": "Michelbeuern-AKH" }, "geometry": { "type": "Point", "coordinates": [ 16.3444, 48.2213 ] } },
{ "type": "Feature", "properties": { "Name": "Währinger Straße-Volksoper" }, "geometry": { "type": "Point", "coordinates": [ 16.3495, 48.2256 ] } },
{ "type": "Feature", "properties": { "Name": "Burggasse-Stadthalle" }, "geometry": { "type": "Point", "coordinates": [ 16.3374, 48.2024 ] } },
{ "type": "Feature", "properties": { "Name": "Gumpendorfer Straße" }, "geometry": { "type": "Point", "coordinates": [ 16.3376, 48.1907 ] } },
{ "type": "Feature", "properties": { "Name": "Wien Westbahnhof" }, "geometry": { "type": "Point", "coordinates": [ 16.3363, 48.1965 ] } },
{ "type": "Feature", "properties": { "Name": "Volkstheater" }, "geometry": { "type": "Point", "coordinates": [ 16.3582, 48.205 ] } },
{ "type": "Feature", "properties": { "Name": "Herrengasse" }, "geometry": { "type": "Point", "coordinates": [ 16.3656, 48.2095 ] } },
{ "type": "Feature", "properties": { "Name": "Stubentor" }, "geometry": { "type": "Point", "coordinates": [ 16.3793, 48.207 ] } },
{ "type": "Feature", "properties": { "Name": "Schlachthausgasse" }, "geometry": { "type": "Point", "coordinates": [ 16.4067, 48.1944 ] } },
{ "type": "Feature", "properties": { "Name": "Schottentor" }, "geometry": { "type": "Point", "coordinates": [ 16.3629, 48.2151 ] } },
{ "type": "Feature", "properties": { "Name": "Museumsquartier" }, "geometry": { "type": "Point", "coordinates": [ 16.3613, 48.2026 ] } },
{ "type": "Feature", "properties": { "Name": "Kirchstetten" }, "geometry": { "type": "Point", "coordinates": [ 15.8211, 48.1902 ] } },
{ "type": "Feature", "properties": { "Name": "Neulengbach" }, "geometry": { "type": "Point", "coordinates": [ 15.8928, 48.1995 ] } },
{ "type": "Feature", "properties": { "Name": "Neue Donau" }, "geometry": { "type": "Point", "coordinates": [ 16.3947, 48.2463 ] } },
{ "type": "Feature", "properties": { "Name": "Keplerplatz" }, "geometry": { "type": "Point", "coordinates": [ 16.3762, 48.1791 ] } },
{ "type": "Feature", "properties": { "Name": "Westbahnhof" }, "geometry": { "type": "Point", "coordinates": [ 16.3379, 48.196 ] } },
{ "type": "Feature", "properties": { "Name": "Zieglergasse" }, "geometry": { "type": "Point", "coordinates": [ 16.346, 48.1971 ] } },
{ "type": "Feature", "properties": { "Name": "Neubaugasse" }, "geometry": { "type": "Point", "coordinates": [ 16.3523, 48.1992 ] } },
{ "type": "Feature", "properties": { "Name": "Johnstraße" }, "geometry": { "type": "Point", "coordinates": [ 16.3201, 48.1977 ] } },
{ "type": "Feature", "properties": { "Name": "Schweglerstraße" }, "geometry": { "type": "Point", "coordinates": [ 16.3285, 48.1979 ] } },
{ "type": "Feature", "properties": { "Name": "Ottakring" }, "geometry": { "type": "Point", "coordinates": [ 16.3114, 48.2111 ] } },
{ "type": "Feature", "properties": { "Name": "Kagraner Platz" }, "geometry": { "type": "Point", "coordinates": [ 16.4433, 48.2502 ] } },
{ "type": "Feature", "properties": { "Name": "Taborstraße" }, "geometry": { "type": "Point", "coordinates": [ 16.3816, 48.2191 ] } },
{ "type": "Feature", "properties": { "Name": "Krieau" }, "geometry": { "type": "Point", "coordinates": [ 16.4137, 48.2147 ] } },
{ "type": "Feature", "properties": { "Name": "Stadion" }, "geometry": { "type": "Point", "coordinates": [ 16.4207, 48.2105 ] } },
{ "type": "Feature", "properties": { "Name": "Donaumarina" }, "geometry": { "type": "Point", "coordinates": [ 16.4315, 48.2064 ] } },
{ "type": "Feature", "properties": { "Name": "Gasometer" }, "geometry": { "type": "Point", "coordinates": [ 16.4175, 48.1851 ] } },
{ "type": "Feature", "properties": { "Name": "Zippererstraße" }, "geometry": { "type": "Point", "coordinates": [ 16.4121, 48.1804 ] } },
{ "type": "Feature", "properties": { "Name": "Flughafen Wien" }, "geometry": { "type": "Point", "coordinates": [ 16.563, 48.1209 ] } },
{ "type": "Feature", "properties": { "Name": "Wien Meidling" }, "geometry": { "type": "Point", "coordinates": [ 16.334, 48.1745 ] } },
{ "type": "Feature", "properties": { "Name": "Leopoldau" }, "geometry": { "type": "Point", "coordinates": [ 16.452, 48.2776 ] } },
{ "type": "Feature", "properties": { "Name": "Großfeldsiedlung" }, "geometry": { "type": "Point", "coordinates": [ 16.4479, 48.271 ] } },
{ "type": "Feature", "properties": { "Name": "Aspernstraße" }, "geometry": { "type": "Point", "coordinates": [ 16.475, 48.2226 ] } },
{ "type": "Feature", "properties": { "Name": "Donaustadtbrücke" }, "geometry": { "type": "Point", "coordinates": [ 16.4402, 48.2118 ] } },
{ "type": "Feature", "properties": { "Name": "Stadlau" }, "geometry": { "type": "Point", "coordinates": [ 16.4494, 48.2196 ] } },
{ "type": "Feature", "properties": { "Name": "Rochusgasse" }, "geometry": { "type": "Point", "coordinates": [ 16.3923, 48.2021 ] } },
{ "type": "Feature", "properties": { "Name": "Erdberg" }, "geometry": { "type": "Point", "coordinates": [ 16.4142, 48.1915 ] } },
{ "type": "Feature", "properties": { "Name": "Enkplatz" }, "geometry": { "type": "Point", "coordinates": [ 16.4148, 48.1747 ] } },
{ "type": "Feature", "properties": { "Name": "Hütteldorfer Straße" }, "geometry": { "type": "Point", "coordinates": [ 16.3115, 48.1998 ] } },
{ "type": "Feature", "properties": { "Name": "Kendlerstraße" }, "geometry": { "type": "Point", "coordinates": [ 16.3092, 48.2045 ] } },
{ "type": "Feature", "properties": { "Name": "Lanzenkirchen" }, "geometry": { "type": "Point", "coordinates": [ 16.2422, 47.7507 ] } },
{ "type": "Feature", "properties": { "Name": "Tullnerbach-Pressbaum" }, "geometry": { "type": "Point", "coordinates": [ 16.0933, 48.1861 ] } },
{ "type": "Feature", "properties": { "Name": "Neckenmarkt-Horitschon" }, "geometry": { "type": "Point", "coordinates": [ 16.547, 47.5914 ] } },
{ "type": "Feature", "properties": { "Name": "Lackenbach" }, "geometry": { "type": "Point", "coordinates": [ 16.4758, 47.5857 ] } },
{ "type": "Feature", "properties": { "Name": "Markt St. Martin" }, "geometry": { "type": "Point", "coordinates": [ 16.432, 47.5648 ] } },
{ "type": "Feature", "properties": { "Name": "Oberpullendorf" }, "geometry": { "type": "Point", "coordinates": [ 16.5047, 47.4962 ] } },
{ "type": "Feature", "properties": { "Name": "Vitis" }, "geometry": { "type": "Point", "coordinates": [ 15.1736, 48.7531 ] } },
{ "type": "Feature", "properties": { "Name": "Eggenburg" }, "geometry": { "type": "Point", "coordinates": [ 15.8149, 48.6378 ] } },
{ "type": "Feature", "properties": { "Name": "Ziersdorf" }, "geometry": { "type": "Point", "coordinates": [ 15.921, 48.5285 ] } },
{ "type": "Feature", "properties": { "Name": "Dorfgastein" }, "geometry": { "type": "Point", "coordinates": [ 13.1031, 47.2385 ] } },
{ "type": "Feature", "properties": { "Name": "Riedau" }, "geometry": { "type": "Point", "coordinates": [ 13.6269, 48.3047 ] } },
{ "type": "Feature", "properties": { "Name": "Kardinal-Nagl-Platz" }, "geometry": { "type": "Point", "coordinates": [ 16.3999, 48.1976 ] } },
{ "type": "Feature", "properties": { "Name": "Simmering" }, "geometry": { "type": "Point", "coordinates": [ 16.42, 48.1701 ] } },
{ "type": "Feature", "properties": { "Name": "Hochfilzen" }, "geometry": { "type": "Point", "coordinates": [ 12.6266, 47.4674 ] } },
{ "type": "Feature", "properties": { "Name": "Fürth-Kaprun" }, "geometry": { "type": "Point", "coordinates": [ 12.7449, 47.2879 ] } },
{ "type": "Feature", "properties": { "Name": "Landstraße" }, "geometry": { "type": "Point", "coordinates": [ 16.3853, 48.2059 ] } },
{ "type": "Feature", "properties": { "Name": "Pregarten" }, "geometry": { "type": "Point", "coordinates": [ 14.5226, 48.356 ] } },
{ "type": "Feature", "properties": { "Name": "Kefermarkt" }, "geometry": { "type": "Point", "coordinates": [ 14.538, 48.437 ] } },
{ "type": "Feature", "properties": { "Name": "Garsten" }, "geometry": { "type": "Point", "coordinates": [ 14.4083, 48.0237 ] } },
{ "type": "Feature", "properties": { "Name": "Ramingdorf-Haidershofen" }, "geometry": { "type": "Point", "coordinates": [ 14.4595, 48.0677 ] } },
{ "type": "Feature", "properties": { "Name": "Lungitz" }, "geometry": { "type": "Point", "coordinates": [ 14.4784, 48.2886 ] } },
{ "type": "Feature", "properties": { "Name": "St. Georgen an der Gusen" }, "geometry": { "type": "Point", "coordinates": [ 14.4408, 48.2652 ] } },
{ "type": "Feature", "properties": { "Name": "Steyregg" }, "geometry": { "type": "Point", "coordinates": [ 14.3616, 48.2845 ] } },
{ "type": "Feature", "properties": { "Name": "Weißenbach-Neuhaus" }, "geometry": { "type": "Point", "coordinates": [ 16.0459, 47.9842 ] } },
{ "type": "Feature", "properties": { "Name": "Frastanz" }, "geometry": { "type": "Point", "coordinates": [ 9.6392, 47.2201 ] } },
{ "type": "Feature", "properties": { "Name": "Tauplitz" }, "geometry": { "type": "Point", "coordinates": [ 14.0104, 47.5516 ] } },
{ "type": "Feature", "properties": { "Name": "Bad Mitterndorf" }, "geometry": { "type": "Point", "coordinates": [ 13.9452, 47.5504 ] } },
{ "type": "Feature", "properties": { "Name": "Kainisch" }, "geometry": { "type": "Point", "coordinates": [ 13.8427, 47.5698 ] } },
{ "type": "Feature", "properties": { "Name": "Bad Aussee" }, "geometry": { "type": "Point", "coordinates": [ 13.7768, 47.5991 ] } },
{ "type": "Feature", "properties": { "Name": "Obertraun Dachsteinhöhlen" }, "geometry": { "type": "Point", "coordinates": [ 13.6836, 47.5576 ] } },
{ "type": "Feature", "properties": { "Name": "Steeg-Gosau" }, "geometry": { "type": "Point", "coordinates": [ 13.6319, 47.6164 ] } },
{ "type": "Feature", "properties": { "Name": "Bad Goisern" }, "geometry": { "type": "Point", "coordinates": [ 13.6127, 47.64 ] } },
{ "type": "Feature", "properties": { "Name": "Bad Ischl" }, "geometry": { "type": "Point", "coordinates": [ 13.6275, 47.7121 ] } },
{ "type": "Feature", "properties": { "Name": "Mitterweißenbach" }, "geometry": { "type": "Point", "coordinates": [ 13.6633, 47.7387 ] } },
{ "type": "Feature", "properties": { "Name": "Traunkirchen" }, "geometry": { "type": "Point", "coordinates": [ 13.7771, 47.8553 ] } },
{ "type": "Feature", "properties": { "Name": "Altmünster" }, "geometry": { "type": "Point", "coordinates": [ 13.7582, 47.8913 ] } },
{ "type": "Feature", "properties": { "Name": "Mistelbach" }, "geometry": { "type": "Point", "coordinates": [ 16.5643, 48.5659 ] } },
{ "type": "Feature", "properties": { "Name": "Dornbirn" }, "geometry": { "type": "Point", "coordinates": [ 9.7387, 47.4176 ] } },
{ "type": "Feature", "properties": { "Name": "Münchendorf" }, "geometry": { "type": "Point", "coordinates": [ 16.3862, 48.0324 ] } },
{ "type": "Feature", "properties": { "Name": "Petronell-Carnuntum" }, "geometry": { "type": "Point", "coordinates": [ 16.868, 48.106 ] } },
{ "type": "Feature", "properties": { "Name": "Gerasdorf" }, "geometry": { "type": "Point", "coordinates": [ 16.484, 48.2937 ] } },
{ "type": "Feature", "properties": { "Name": "Maria Ellend" }, "geometry": { "type": "Point", "coordinates": [ 16.6885, 48.1099 ] } },
{ "type": "Feature", "properties": { "Name": "Ludesch" }, "geometry": { "type": "Point", "coordinates": [ 9.7712, 47.1803 ] } },
{ "type": "Feature", "properties": { "Name": "Ederbauer" }, "geometry": { "type": "Point", "coordinates": [ 13.3225, 47.9835 ] } },
{ "type": "Feature", "properties": { "Name": "Vöcklamarkt" }, "geometry": { "type": "Point", "coordinates": [ 13.4894, 47.998 ] } },
{ "type": "Feature", "properties": { "Name": "Redl-Zipf" }, "geometry": { "type": "Point", "coordinates": [ 13.5151, 48.0262 ] } },
{ "type": "Feature", "properties": { "Name": "Freistadt" }, "geometry": { "type": "Point", "coordinates": [ 14.4814, 48.4952 ] } },
{ "type": "Feature", "properties": { "Name": "Ladendorf" }, "geometry": { "type": "Point", "coordinates": [ 16.51, 48.536 ] } },
{ "type": "Feature", "properties": { "Name": "Linz Hauptbahnhof" }, "geometry": { "type": "Point", "coordinates": [ 14.2919, 48.2902 ] } },
{ "type": "Feature", "properties": { "Name": "Serfaus Kirche" }, "geometry": { "type": "Point", "coordinates": [ 10.6077, 47.0384 ] } },
{ "type": "Feature", "properties": { "Name": "Serfaus Zentrum" }, "geometry": { "type": "Point", "coordinates": [ 10.6051, 47.0387 ] } },
{ "type": "Feature", "properties": { "Name": "Serfaus Seilbahn" }, "geometry": { "type": "Point", "coordinates": [ 10.5973, 47.0406 ] } },
{ "type": "Feature", "properties": { "Name": "Matrei am Brenner" }, "geometry": { "type": "Point", "coordinates": [ 11.4528, 47.1271 ] } },
{ "type": "Feature", "properties": { "Name": "Steinach am Brenner" }, "geometry": { "type": "Point", "coordinates": [ 11.4699, 47.0895 ] } },
{ "type": "Feature", "properties": { "Name": "Pitten" }, "geometry": { "type": "Point", "coordinates": [ 16.1796, 47.7172 ] } },
{ "type": "Feature", "properties": { "Name": "Schrambach" }, "geometry": { "type": "Point", "coordinates": [ 15.5754, 48.0021 ] } },
{ "type": "Feature", "properties": { "Name": "Zirl" }, "geometry": { "type": "Point", "coordinates": [ 11.2298, 47.2659 ] } },
{ "type": "Feature", "properties": { "Name": "Krumpendorf" }, "geometry": { "type": "Point", "coordinates": [ 14.2218, 46.6265 ] } },
{ "type": "Feature", "properties": { "Name": "Kindberg" }, "geometry": { "type": "Point", "coordinates": [ 15.4484, 47.5012 ] } },
{ "type": "Feature", "properties": { "Name": "Wartberg im Mürztal" }, "geometry": { "type": "Point", "coordinates": [ 15.4809, 47.5272 ] } },
{ "type": "Feature", "properties": { "Name": "Mürzzuschlag" }, "geometry": { "type": "Point", "coordinates": [ 15.6772, 47.6079 ] } },
{ "type": "Feature", "properties": { "Name": "Semmering" }, "geometry": { "type": "Point", "coordinates": [ 15.8309, 47.6396 ] } },
{ "type": "Feature", "properties": { "Name": "Bischofstetten" }, "geometry": { "type": "Point", "coordinates": [ 15.4665, 48.1227 ] } },
{ "type": "Feature", "properties": { "Name": "Traiskirchen Aspangbahn" }, "geometry": { "type": "Point", "coordinates": [ 16.3034, 48.0179 ] } },
{ "type": "Feature", "properties": { "Name": "Hainfeld" }, "geometry": { "type": "Point", "coordinates": [ 15.7677, 48.0398 ] } },
{ "type": "Feature", "properties": { "Name": "Maria Lanzendorf" }, "geometry": { "type": "Point", "coordinates": [ 16.4195, 48.1025 ] } },
{ "type": "Feature", "properties": { "Name": "Gmünd NÖ" }, "geometry": { "type": "Point", "coordinates": [ 14.9849, 48.7642 ] } },
{ "type": "Feature", "properties": { "Name": "Rosenbach" }, "geometry": { "type": "Point", "coordinates": [ 14.035, 46.5306 ] } },
{ "type": "Feature", "properties": { "Name": "Faak am See" }, "geometry": { "type": "Point", "coordinates": [ 13.9115, 46.5643 ] } },
{ "type": "Feature", "properties": { "Name": "Villach Westbf" }, "geometry": { "type": "Point", "coordinates": [ 13.8406, 46.6092 ] } },
{ "type": "Feature", "properties": { "Name": "Pusarnitz" }, "geometry": { "type": "Point", "coordinates": [ 13.4046, 46.8352 ] } },
{ "type": "Feature", "properties": { "Name": "Gols" }, "geometry": { "type": "Point", "coordinates": [ 16.9051, 47.8917 ] } },
{ "type": "Feature", "properties": { "Name": "Dornach bei Grein" }, "geometry": { "type": "Point", "coordinates": [ 14.8201, 48.1918 ] } },
{ "type": "Feature", "properties": { "Name": "Taxenbach-Rauris" }, "geometry": { "type": "Point", "coordinates": [ 12.9468, 47.2928 ] } },
{ "type": "Feature", "properties": { "Name": "Arnoldstein" }, "geometry": { "type": "Point", "coordinates": [ 13.7076, 46.5515 ] } },
{ "type": "Feature", "properties": { "Name": "Graz Straßgang" }, "geometry": { "type": "Point", "coordinates": [ 15.4055, 47.0202 ] } },
{ "type": "Feature", "properties": { "Name": "Premstätten-Tobelbad" }, "geometry": { "type": "Point", "coordinates": [ 15.3912, 46.98 ] } },
{ "type": "Feature", "properties": { "Name": "Gaisbach-Wartberg" }, "geometry": { "type": "Point", "coordinates": [ 14.506, 48.3302 ] } },
{ "type": "Feature", "properties": { "Name": "Lochau-Hörbranz" }, "geometry": { "type": "Point", "coordinates": [ 9.7425, 47.5294 ] } },
{ "type": "Feature", "properties": { "Name": "Steyr" }, "geometry": { "type": "Point", "coordinates": [ 14.4235, 48.0384 ] } },
{ "type": "Feature", "properties": { "Name": "Pergern" }, "geometry": { "type": "Point", "coordinates": [ 14.3568, 48.0494 ] } },
{ "type": "Feature", "properties": { "Name": "Seekirchen am Wallersee" }, "geometry": { "type": "Point", "coordinates": [ 13.13, 47.8994 ] } },
{ "type": "Feature", "properties": { "Name": "Kohlebahnhof Scheiben" }, "geometry": { "type": "Point", "coordinates": [ 13.6341, 48.1362 ] } },
{ "type": "Feature", "properties": { "Name": "Marein-St. Lorenzen" }, "geometry": { "type": "Point", "coordinates": [ 15.3729, 47.4731 ] } },
{ "type": "Feature", "properties": { "Name": "Ernsthofen" }, "geometry": { "type": "Point", "coordinates": [ 14.48, 48.1266 ] } },
{ "type": "Feature", "properties": { "Name": "St. Valentin" }, "geometry": { "type": "Point", "coordinates": [ 14.5218, 48.1792 ] } },
{ "type": "Feature", "properties": { "Name": "Wernstein" }, "geometry": { "type": "Point", "coordinates": [ 13.4554, 48.504 ] } },
{ "type": "Feature", "properties": { "Name": "Stein-Mautern" }, "geometry": { "type": "Point", "coordinates": [ 15.5721, 48.3994 ] } },
{ "type": "Feature", "properties": { "Name": "Wels Lokalbahn" }, "geometry": { "type": "Point", "coordinates": [ 14.0174, 48.1565 ] } },
{ "type": "Feature", "properties": { "Name": "Gleisdorf" }, "geometry": { "type": "Point", "coordinates": [ 15.7079, 47.0998 ] } },
{ "type": "Feature", "properties": { "Name": "Laßnitzhöhe" }, "geometry": { "type": "Point", "coordinates": [ 15.5884, 47.0789 ] } },
{ "type": "Feature", "properties": { "Name": "Voitsdorf" }, "geometry": { "type": "Point", "coordinates": [ 14.0471, 48.0124 ] } },
{ "type": "Feature", "properties": { "Name": "Admont" }, "geometry": { "type": "Point", "coordinates": [ 14.4684, 47.5734 ] } },
{ "type": "Feature", "properties": { "Name": "Frauenberg an der Enns" }, "geometry": { "type": "Point", "coordinates": [ 14.3984, 47.57 ] } },
{ "type": "Feature", "properties": { "Name": "Congress" }, "geometry": { "type": "Point", "coordinates": [ 11.3954, 47.271 ] } },
{ "type": "Feature", "properties": { "Name": "Hungerburg" }, "geometry": { "type": "Point", "coordinates": [ 11.4001, 47.2863 ] } },
{ "type": "Feature", "properties": { "Name": "Vils in Tirol" }, "geometry": { "type": "Point", "coordinates": [ 10.6389, 47.5488 ] } },
{ "type": "Feature", "properties": { "Name": "Ottensheim" }, "geometry": { "type": "Point", "coordinates": [ 14.1771, 48.3378 ] } },
{ "type": "Feature", "properties": { "Name": "Rankweil" }, "geometry": { "type": "Point", "coordinates": [ 9.6376, 47.272 ] } },
{ "type": "Feature", "properties": { "Name": "Neusiedl am See Bad" }, "geometry": { "type": "Point", "coordinates": [ 16.8443, 47.9429 ] } },
{ "type": "Feature", "properties": { "Name": "Ehrwald Zugspitzbahn" }, "geometry": { "type": "Point", "coordinates": [ 10.9136, 47.4094 ] } },
{ "type": "Feature", "properties": { "Name": "Mönchhof-Halbturn" }, "geometry": { "type": "Point", "coordinates": [ 16.9468, 47.8748 ] } },
{ "type": "Feature", "properties": { "Name": "Summerau" }, "geometry": { "type": "Point", "coordinates": [ 14.4489, 48.5573 ] } },
{ "type": "Feature", "properties": { "Name": "Ebenfurth" }, "geometry": { "type": "Point", "coordinates": [ 16.3621, 47.8776 ] } },
{ "type": "Feature", "properties": { "Name": "Bad Deutsch Altenburg" }, "geometry": { "type": "Point", "coordinates": [ 16.9109, 48.1329 ] } },
{ "type": "Feature", "properties": { "Name": "Götzis" }, "geometry": { "type": "Point", "coordinates": [ 9.6367, 47.3367 ] } },
{ "type": "Feature", "properties": { "Name": "Klangen" }, "geometry": { "type": "Point", "coordinates": [ 15.5412, 48.1201 ] } },
{ "type": "Feature", "properties": { "Name": "Hofstetten-Grünau" }, "geometry": { "type": "Point", "coordinates": [ 15.5076, 48.0966 ] } },
{ "type": "Feature", "properties": { "Name": "Rabenstein" }, "geometry": { "type": "Point", "coordinates": [ 15.4657, 48.0682 ] } },
{ "type": "Feature", "properties": { "Name": "St. Wolfgang Schafbergbf" }, "geometry": { "type": "Point", "coordinates": [ 13.4398, 47.7394 ] } },
{ "type": "Feature", "properties": { "Name": "Schafbergalpe" }, "geometry": { "type": "Point", "coordinates": [ 13.4221, 47.7699 ] } },
{ "type": "Feature", "properties": { "Name": "Schafbergspitze" }, "geometry": { "type": "Point", "coordinates": [ 13.434, 47.7751 ] } },
{ "type": "Feature", "properties": { "Name": "Leibnitz" }, "geometry": { "type": "Point", "coordinates": [ 15.5473, 46.7799 ] } },
{ "type": "Feature", "properties": { "Name": "Kirchberg an der Pielach" }, "geometry": { "type": "Point", "coordinates": [ 15.4328, 48.0243 ] } },
{ "type": "Feature", "properties": { "Name": "Schwarzenbach an der Pielach" }, "geometry": { "type": "Point", "coordinates": [ 15.354, 47.9952 ] } },
{ "type": "Feature", "properties": { "Name": "Frankenfels" }, "geometry": { "type": "Point", "coordinates": [ 15.3222, 47.982 ] } },
{ "type": "Feature", "properties": { "Name": "Winterbach" }, "geometry": { "type": "Point", "coordinates": [ 15.2752, 47.951 ] } },
{ "type": "Feature", "properties": { "Name": "Gösing" }, "geometry": { "type": "Point", "coordinates": [ 15.2819, 47.8883 ] } },
{ "type": "Feature", "properties": { "Name": "Annaberg" }, "geometry": { "type": "Point", "coordinates": [ 15.3107, 47.8653 ] } },
{ "type": "Feature", "properties": { "Name": "Wienerbruck-Josefsberg" }, "geometry": { "type": "Point", "coordinates": [ 15.3073, 47.8565 ] } },
{ "type": "Feature", "properties": { "Name": "Mitterbach am Erlaufsee" }, "geometry": { "type": "Point", "coordinates": [ 15.2969, 47.8131 ] } },
{ "type": "Feature", "properties": { "Name": "Mariazell" }, "geometry": { "type": "Point", "coordinates": [ 15.3074, 47.7832 ] } },
{ "type": "Feature", "properties": { "Name": "Wampersdorf" }, "geometry": { "type": "Point", "coordinates": [ 16.417, 47.9309 ] } },
{ "type": "Feature", "properties": { "Name": "Ebreichsdorf" }, "geometry": { "type": "Point", "coordinates": [ 16.4088, 47.9612 ] } },
{ "type": "Feature", "properties": { "Name": "Achau" }, "geometry": { "type": "Point", "coordinates": [ 16.3767, 48.0823 ] } },
{ "type": "Feature", "properties": { "Name": "Hennersdorf" }, "geometry": { "type": "Point", "coordinates": [ 16.3585, 48.1127 ] } },
{ "type": "Feature", "properties": { "Name": "Wolfurt" }, "geometry": { "type": "Point", "coordinates": [ 9.7411, 47.4571 ] } },
{ "type": "Feature", "properties": { "Name": "Pettenbach" }, "geometry": { "type": "Point", "coordinates": [ 14.0119, 47.9622 ] } },
{ "type": "Feature", "properties": { "Name": "Puchenau West" }, "geometry": { "type": "Point", "coordinates": [ 14.2226, 48.3125 ] } },
{ "type": "Feature", "properties": { "Name": "Rottenegg" }, "geometry": { "type": "Point", "coordinates": [ 14.1377, 48.3601 ] } },
{ "type": "Feature", "properties": { "Name": "Neuhaus-Niederwaldkirchen" }, "geometry": { "type": "Point", "coordinates": [ 14.0515, 48.442 ] } },
{ "type": "Feature", "properties": { "Name": "Neufelden" }, "geometry": { "type": "Point", "coordinates": [ 14.0051, 48.4839 ] } },
{ "type": "Feature", "properties": { "Name": "Haslach\/Mühl" }, "geometry": { "type": "Point", "coordinates": [ 14.0309, 48.5545 ] } },
{ "type": "Feature", "properties": { "Name": "Rohrbach-Berg" }, "geometry": { "type": "Point", "coordinates": [ 13.987, 48.582 ] } },
{ "type": "Feature", "properties": { "Name": "Aigen-Schlägl" }, "geometry": { "type": "Point", "coordinates": [ 13.9751, 48.6426 ] } },
{ "type": "Feature", "properties": { "Name": "Völs" }, "geometry": { "type": "Point", "coordinates": [ 11.3214, 47.2557 ] } },
{ "type": "Feature", "properties": { "Name": "Telfs-Pfaffenhofen" }, "geometry": { "type": "Point", "coordinates": [ 11.0786, 47.3007 ] } },
{ "type": "Feature", "properties": { "Name": "Krottendorf-Ligist" }, "geometry": { "type": "Point", "coordinates": [ 15.2143, 47.0099 ] } },
{ "type": "Feature", "properties": { "Name": "Deutschlandsberg" }, "geometry": { "type": "Point", "coordinates": [ 15.2183, 46.8189 ] } },
{ "type": "Feature", "properties": { "Name": "Fürstenfeld" }, "geometry": { "type": "Point", "coordinates": [ 16.0839, 47.0418 ] } },
{ "type": "Feature", "properties": { "Name": "Söchau" }, "geometry": { "type": "Point", "coordinates": [ 16.014, 47.0286 ] } },
{ "type": "Feature", "properties": { "Name": "Sebersdorf" }, "geometry": { "type": "Point", "coordinates": [ 15.999, 47.1889 ] } },
{ "type": "Feature", "properties": { "Name": "Studenzen-Fladnitz" }, "geometry": { "type": "Point", "coordinates": [ 15.7748, 46.999 ] } },
{ "type": "Feature", "properties": { "Name": "Feldbach" }, "geometry": { "type": "Point", "coordinates": [ 15.8901, 46.9586 ] } },
{ "type": "Feature", "properties": { "Name": "Jennersdorf" }, "geometry": { "type": "Point", "coordinates": [ 16.1393, 46.935 ] } },
{ "type": "Feature", "properties": { "Name": "Feldbach Landesbahn" }, "geometry": { "type": "Point", "coordinates": [ 15.8967, 46.9493 ] } },
{ "type": "Feature", "properties": { "Name": "Pürbach-Schrems" }, "geometry": { "type": "Point", "coordinates": [ 15.084, 48.7637 ] } },
{ "type": "Feature", "properties": { "Name": "Obereggendorf" }, "geometry": { "type": "Point", "coordinates": [ 16.2966, 47.8496 ] } },
{ "type": "Feature", "properties": { "Name": "Grafendorf bei Hartberg" }, "geometry": { "type": "Point", "coordinates": [ 16.0035, 47.3467 ] } },
{ "type": "Feature", "properties": { "Name": "Friedberg" }, "geometry": { "type": "Point", "coordinates": [ 16.054, 47.4348 ] } },
{ "type": "Feature", "properties": { "Name": "Laa an der Thaya" }, "geometry": { "type": "Point", "coordinates": [ 16.4027, 48.7239 ] } },
{ "type": "Feature", "properties": { "Name": "Loosdorf" }, "geometry": { "type": "Point", "coordinates": [ 15.405, 48.1949 ] } },
{ "type": "Feature", "properties": { "Name": "Weißenkirchen i.d. Wachau" }, "geometry": { "type": "Point", "coordinates": [ 15.4731, 48.3984 ] } },
{ "type": "Feature", "properties": { "Name": "Laxenburg-Biedermannsdorf" }, "geometry": { "type": "Point", "coordinates": [ 16.357, 48.0777 ] } },
{ "type": "Feature", "properties": { "Name": "Ulmerfeld-Hausmening" }, "geometry": { "type": "Point", "coordinates": [ 14.8156, 48.0749 ] } },
{ "type": "Feature", "properties": { "Name": "Hilm-Kematen" }, "geometry": { "type": "Point", "coordinates": [ 14.7621, 48.0226 ] } },
{ "type": "Feature", "properties": { "Name": "Rosenau" }, "geometry": { "type": "Point", "coordinates": [ 14.7417, 48.0106 ] } },
{ "type": "Feature", "properties": { "Name": "Sonntagberg" }, "geometry": { "type": "Point", "coordinates": [ 14.7383, 47.992 ] } },
{ "type": "Feature", "properties": { "Name": "Waidhofen an der Ybbs" }, "geometry": { "type": "Point", "coordinates": [ 14.7653, 47.9681 ] } },
{ "type": "Feature", "properties": { "Name": "Weiz Bahnhof" }, "geometry": { "type": "Point", "coordinates": [ 15.6301, 47.2149 ] } },
{ "type": "Feature", "properties": { "Name": "Birkfeld" }, "geometry": { "type": "Point", "coordinates": [ 15.6982, 47.353 ] } },
{ "type": "Feature", "properties": { "Name": "Oberfeistritz" }, "geometry": { "type": "Point", "coordinates": [ 15.7144, 47.261 ] } },
{ "type": "Feature", "properties": { "Name": "Waidhofen an der Ybbs" }, "geometry": { "type": "Point", "coordinates": [ 14.7661, 47.9683 ] } },
{ "type": "Feature", "properties": { "Name": "Waidhofen\/Ybbs Lokalbahn" }, "geometry": { "type": "Point", "coordinates": [ 14.7788, 47.9559 ] } },
{ "type": "Feature", "properties": { "Name": "Lieboch" }, "geometry": { "type": "Point", "coordinates": [ 15.3454, 46.9686 ] } },
{ "type": "Feature", "properties": { "Name": "Kraubath" }, "geometry": { "type": "Point", "coordinates": [ 14.9455, 47.3061 ] } },
{ "type": "Feature", "properties": { "Name": "Velden am Wörthersee" }, "geometry": { "type": "Point", "coordinates": [ 14.0448, 46.6201 ] } },
{ "type": "Feature", "properties": { "Name": "Föderlach" }, "geometry": { "type": "Point", "coordinates": [ 13.9592, 46.6021 ] } },
{ "type": "Feature", "properties": { "Name": "Mining" }, "geometry": { "type": "Point", "coordinates": [ 13.1715, 48.2713 ] } },
{ "type": "Feature", "properties": { "Name": "Bad Radkersburg" }, "geometry": { "type": "Point", "coordinates": [ 15.9934, 46.6995 ] } },
{ "type": "Feature", "properties": { "Name": "Mureck" }, "geometry": { "type": "Point", "coordinates": [ 15.7713, 46.7113 ] } },
{ "type": "Feature", "properties": { "Name": "Halbenrain" }, "geometry": { "type": "Point", "coordinates": [ 15.949, 46.7238 ] } },
{ "type": "Feature", "properties": { "Name": "Heidenreichstein" }, "geometry": { "type": "Point", "coordinates": [ 15.1175, 48.8647 ] } },
{ "type": "Feature", "properties": { "Name": "Tauchen-Schaueregg" }, "geometry": { "type": "Point", "coordinates": [ 16.0549, 47.4829 ] } },
{ "type": "Feature", "properties": { "Name": "Salzburg Hauptbahnhof" }, "geometry": { "type": "Point", "coordinates": [ 13.0459, 47.8131 ] } },
{ "type": "Feature", "properties": { "Name": "Losenstein" }, "geometry": { "type": "Point", "coordinates": [ 14.4311, 47.924 ] } },
{ "type": "Feature", "properties": { "Name": "Steindorf bei Straßwalchen" }, "geometry": { "type": "Point", "coordinates": [ 13.2394, 47.9668 ] } },
{ "type": "Feature", "properties": { "Name": "Straßwalchen" }, "geometry": { "type": "Point", "coordinates": [ 13.2644, 47.972 ] } },
{ "type": "Feature", "properties": { "Name": "Frankenmarkt" }, "geometry": { "type": "Point", "coordinates": [ 13.4319, 47.9829 ] } },
{ "type": "Feature", "properties": { "Name": "Schwanenstadt" }, "geometry": { "type": "Point", "coordinates": [ 13.7672, 48.0535 ] } },
{ "type": "Feature", "properties": { "Name": "Zeltweg" }, "geometry": { "type": "Point", "coordinates": [ 14.75, 47.1901 ] } },
{ "type": "Feature", "properties": { "Name": "Thalheim-Pöls" }, "geometry": { "type": "Point", "coordinates": [ 14.5893, 47.1966 ] } },
{ "type": "Feature", "properties": { "Name": "Judenburg" }, "geometry": { "type": "Point", "coordinates": [ 14.6626, 47.175 ] } },
{ "type": "Feature", "properties": { "Name": "Eisenerz" }, "geometry": { "type": "Point", "coordinates": [ 14.8795, 47.5452 ] } },
{ "type": "Feature", "properties": { "Name": "Pörtschach am Wörthersee" }, "geometry": { "type": "Point", "coordinates": [ 14.1462, 46.6363 ] } },
{ "type": "Feature", "properties": { "Name": "St.Andrä am Zicksee" }, "geometry": { "type": "Point", "coordinates": [ 16.9279, 47.7828 ] } },
{ "type": "Feature", "properties": { "Name": "Werndorf" }, "geometry": { "type": "Point", "coordinates": [ 15.4769, 46.9163 ] } },
{ "type": "Feature", "properties": { "Name": "Söding-Mooskirchen" }, "geometry": { "type": "Point", "coordinates": [ 15.2829, 46.9966 ] } },
{ "type": "Feature", "properties": { "Name": "Gosdorf" }, "geometry": { "type": "Point", "coordinates": [ 15.7978, 46.7246 ] } },
{ "type": "Feature", "properties": { "Name": "Anthering" }, "geometry": { "type": "Point", "coordinates": [ 13.0009, 47.8793 ] } },
{ "type": "Feature", "properties": { "Name": "Lamprechtshausen" }, "geometry": { "type": "Point", "coordinates": [ 12.9495, 47.9901 ] } },
{ "type": "Feature", "properties": { "Name": "Pamhagen" }, "geometry": { "type": "Point", "coordinates": [ 16.9034, 47.7041 ] } },
{ "type": "Feature", "properties": { "Name": "Stainz" }, "geometry": { "type": "Point", "coordinates": [ 15.2686, 46.8905 ] } },
{ "type": "Feature", "properties": { "Name": "Baumgarten" }, "geometry": { "type": "Point", "coordinates": [ 16.5178, 47.7279 ] } },
{ "type": "Feature", "properties": { "Name": "Müllendorf" }, "geometry": { "type": "Point", "coordinates": [ 16.4591, 47.8347 ] } },
{ "type": "Feature", "properties": { "Name": "Ausschlag-Zöbern" }, "geometry": { "type": "Point", "coordinates": [ 16.0833, 47.5331 ] } },
{ "type": "Feature", "properties": { "Name": "Aspang" }, "geometry": { "type": "Point", "coordinates": [ 16.0996, 47.5624 ] } },
{ "type": "Feature", "properties": { "Name": "St. Martin-Sittich" }, "geometry": { "type": "Point", "coordinates": [ 14.1526, 46.7322 ] } },
{ "type": "Feature", "properties": { "Name": "Glanegg" }, "geometry": { "type": "Point", "coordinates": [ 14.2113, 46.7176 ] } },
{ "type": "Feature", "properties": { "Name": "Scharnstein-Mühldorf" }, "geometry": { "type": "Point", "coordinates": [ 13.9586, 47.9004 ] } },
{ "type": "Feature", "properties": { "Name": "Wald im Pinzgau" }, "geometry": { "type": "Point", "coordinates": [ 12.228, 47.2437 ] } },
{ "type": "Feature", "properties": { "Name": "Krimml" }, "geometry": { "type": "Point", "coordinates": [ 12.1964, 47.2346 ] } },
{ "type": "Feature", "properties": { "Name": "Bramberg" }, "geometry": { "type": "Point", "coordinates": [ 12.3446, 47.2697 ] } },
{ "type": "Feature", "properties": { "Name": "Dorf Paßthurn" }, "geometry": { "type": "Point", "coordinates": [ 12.3886, 47.2773 ] } },
{ "type": "Feature", "properties": { "Name": "Bad Fischau-Brunn" }, "geometry": { "type": "Point", "coordinates": [ 16.1732, 47.8267 ] } },
{ "type": "Feature", "properties": { "Name": "Winzendorf" }, "geometry": { "type": "Point", "coordinates": [ 16.1116, 47.8111 ] } },
{ "type": "Feature", "properties": { "Name": "Frauenkirchen" }, "geometry": { "type": "Point", "coordinates": [ 16.9162, 47.8406 ] } },
{ "type": "Feature", "properties": { "Name": "Braunau am Inn" }, "geometry": { "type": "Point", "coordinates": [ 13.0481, 48.2591 ] } },
{ "type": "Feature", "properties": { "Name": "Dörnbach-Hitzing" }, "geometry": { "type": "Point", "coordinates": [ 14.202, 48.2716 ] } },
{ "type": "Feature", "properties": { "Name": "Willendorf" }, "geometry": { "type": "Point", "coordinates": [ 16.0606, 47.7893 ] } },
{ "type": "Feature", "properties": { "Name": "Eichberg" }, "geometry": { "type": "Point", "coordinates": [ 15.911, 47.6722 ] } },
{ "type": "Feature", "properties": { "Name": "Edlitz-Grimmenstein" }, "geometry": { "type": "Point", "coordinates": [ 16.1279, 47.6169 ] } },
{ "type": "Feature", "properties": { "Name": "Lambach" }, "geometry": { "type": "Point", "coordinates": [ 13.8884, 48.094 ] } },
{ "type": "Feature", "properties": { "Name": "Stadl-Paura" }, "geometry": { "type": "Point", "coordinates": [ 13.8834, 48.0844 ] } },
{ "type": "Feature", "properties": { "Name": "Bad Wimsbach" }, "geometry": { "type": "Point", "coordinates": [ 13.9034, 48.0649 ] } },
{ "type": "Feature", "properties": { "Name": "Wien Hütteldorf" }, "geometry": { "type": "Point", "coordinates": [ 16.2613, 48.1974 ] } },
{ "type": "Feature", "properties": { "Name": "Schwadorf" }, "geometry": { "type": "Point", "coordinates": [ 15.5832, 48.1747 ] } },
{ "type": "Feature", "properties": { "Name": "Ober Grafendorf" }, "geometry": { "type": "Point", "coordinates": [ 15.5399, 48.1521 ] } },
{ "type": "Feature", "properties": { "Name": "Wilhelmsburg an der Traisen" }, "geometry": { "type": "Point", "coordinates": [ 15.6084, 48.1117 ] } },
{ "type": "Feature", "properties": { "Name": "Asparn" }, "geometry": { "type": "Point", "coordinates": [ 16.4929, 48.5826 ] } },
{ "type": "Feature", "properties": { "Name": "Kammer-Schörfling" }, "geometry": { "type": "Point", "coordinates": [ 13.5958, 47.9486 ] } },
{ "type": "Feature", "properties": { "Name": "Lenzing" }, "geometry": { "type": "Point", "coordinates": [ 13.6135, 47.9831 ] } },
{ "type": "Feature", "properties": { "Name": "St. Georgen im Attergau" }, "geometry": { "type": "Point", "coordinates": [ 13.4882, 47.9372 ] } },
{ "type": "Feature", "properties": { "Name": "Ampflwang Museum" }, "geometry": { "type": "Point", "coordinates": [ 13.5628, 48.087 ] } },
{ "type": "Feature", "properties": { "Name": "Ottnang-Wolfsegg" }, "geometry": { "type": "Point", "coordinates": [ 13.6649, 48.0921 ] } },
{ "type": "Feature", "properties": { "Name": "St. Lorenzen ob Murau" }, "geometry": { "type": "Point", "coordinates": [ 14.0905, 47.1017 ] } },
{ "type": "Feature", "properties": { "Name": "Tamsweg" }, "geometry": { "type": "Point", "coordinates": [ 13.808, 47.1299 ] } },
{ "type": "Feature", "properties": { "Name": "St. Anton am Arlberg" }, "geometry": { "type": "Point", "coordinates": [ 10.2673, 47.1274 ] } },
{ "type": "Feature", "properties": { "Name": "Oberweiden" }, "geometry": { "type": "Point", "coordinates": [ 16.8337, 48.3063 ] } },
{ "type": "Feature", "properties": { "Name": "Groß Schweinbarth" }, "geometry": { "type": "Point", "coordinates": [ 16.6404, 48.418 ] } },
{ "type": "Feature", "properties": { "Name": "Bockfließ" }, "geometry": { "type": "Point", "coordinates": [ 16.6034, 48.3578 ] } },
{ "type": "Feature", "properties": { "Name": "Ried im Innkreis" }, "geometry": { "type": "Point", "coordinates": [ 13.4882, 48.2005 ] } },
{ "type": "Feature", "properties": { "Name": "Persenbeug" }, "geometry": { "type": "Point", "coordinates": [ 15.0869, 48.1887 ] } },
{ "type": "Feature", "properties": { "Name": "Übelbach" }, "geometry": { "type": "Point", "coordinates": [ 15.2373, 47.2248 ] } },
{ "type": "Feature", "properties": { "Name": "Traisen" }, "geometry": { "type": "Point", "coordinates": [ 15.6123, 48.0569 ] } },
{ "type": "Feature", "properties": { "Name": "Hohenruppersdorf" }, "geometry": { "type": "Point", "coordinates": [ 16.6471, 48.4689 ] } },
{ "type": "Feature", "properties": { "Name": "St. Anton im Montafon" }, "geometry": { "type": "Point", "coordinates": [ 9.8661, 47.11 ] } },
{ "type": "Feature", "properties": { "Name": "Kalsdorf" }, "geometry": { "type": "Point", "coordinates": [ 15.4701, 46.9642 ] } },
{ "type": "Feature", "properties": { "Name": "Achensee Schiffstation" }, "geometry": { "type": "Point", "coordinates": [ 11.7297, 47.4259 ] } },
{ "type": "Feature", "properties": { "Name": "Eben in Tirol" }, "geometry": { "type": "Point", "coordinates": [ 11.7633, 47.4141 ] } },
{ "type": "Feature", "properties": { "Name": "Jenbach Achenseebahn" }, "geometry": { "type": "Point", "coordinates": [ 11.7793, 47.389 ] } },
{ "type": "Feature", "properties": { "Name": "Uderns im Zillertal" }, "geometry": { "type": "Point", "coordinates": [ 11.8653, 47.3263 ] } },
{ "type": "Feature", "properties": { "Name": "Ernstbrunn" }, "geometry": { "type": "Point", "coordinates": [ 16.3769, 48.5261 ] } },
{ "type": "Feature", "properties": { "Name": "Weiz Lokalbahn" }, "geometry": { "type": "Point", "coordinates": [ 15.6313, 47.2136 ] } },
{ "type": "Feature", "properties": { "Name": "Aschach an der Donau" }, "geometry": { "type": "Point", "coordinates": [ 14.0141, 48.3633 ] } },
{ "type": "Feature", "properties": { "Name": "Nötsch" }, "geometry": { "type": "Point", "coordinates": [ 13.6259, 46.5887 ] } },
{ "type": "Feature", "properties": { "Name": "Tattendorf" }, "geometry": { "type": "Point", "coordinates": [ 16.3061, 47.9557 ] } },
{ "type": "Feature", "properties": { "Name": "Pernitz-Muggendorf" }, "geometry": { "type": "Point", "coordinates": [ 15.9578, 47.8958 ] } },
{ "type": "Feature", "properties": { "Name": "Ortmann" }, "geometry": { "type": "Point", "coordinates": [ 15.9791, 47.8935 ] } },
{ "type": "Feature", "properties": { "Name": "Waldegg" }, "geometry": { "type": "Point", "coordinates": [ 16.0589, 47.869 ] } },
{ "type": "Feature", "properties": { "Name": "Voitsberg" }, "geometry": { "type": "Point", "coordinates": [ 15.15, 47.0432 ] } },
{ "type": "Feature", "properties": { "Name": "Innsbruck Hbf" }, "geometry": { "type": "Point", "coordinates": [ 11.401, 47.2633 ] } },
{ "type": "Feature", "properties": { "Name": "Berndorf Fabrik" }, "geometry": { "type": "Point", "coordinates": [ 16.1338, 47.9402 ] } },
{ "type": "Feature", "properties": { "Name": "Wallern im Burgenland" }, "geometry": { "type": "Point", "coordinates": [ 16.9305, 47.7335 ] } },
{ "type": "Feature", "properties": { "Name": null }, "geometry": { "type": "Point", "coordinates": [ 16.6255, 48.6636 ] } },
{ "type": "Feature", "properties": { "Name": "Vösendorf-Siebenhirten" }, "geometry": { "type": "Point", "coordinates": [ 16.3193, 48.1258 ] } },
{ "type": "Feature", "properties": { "Name": "Marbach-Maria Taferl" }, "geometry": { "type": "Point", "coordinates": [ 15.1587, 48.2157 ] } },
{ "type": "Feature", "properties": { "Name": "Klein Pöchlarn" }, "geometry": { "type": "Point", "coordinates": [ 15.2168, 48.2203 ] } },
{ "type": "Feature", "properties": { "Name": "Weitenegg" }, "geometry": { "type": "Point", "coordinates": [ 15.2882, 48.2291 ] } },
{ "type": "Feature", "properties": { "Name": "Emmersdorf a.d. Donau" }, "geometry": { "type": "Point", "coordinates": [ 15.3375, 48.243 ] } },
{ "type": "Feature", "properties": { "Name": "Aggsbach Markt" }, "geometry": { "type": "Point", "coordinates": [ 15.4029, 48.2966 ] } },
{ "type": "Feature", "properties": { "Name": "Spitz a.d. Donau" }, "geometry": { "type": "Point", "coordinates": [ 15.4175, 48.365 ] } },
{ "type": "Feature", "properties": { "Name": "Grünau im Almtal" }, "geometry": { "type": "Point", "coordinates": [ 13.9516, 47.8537 ] } },
{ "type": "Feature", "properties": { "Name": "Gurten" }, "geometry": { "type": "Point", "coordinates": [ 13.335, 48.2433 ] } },
{ "type": "Feature", "properties": { "Name": "Mixnitz-Bärenschützklamm" }, "geometry": { "type": "Point", "coordinates": [ 15.3605, 47.3313 ] } },
{ "type": "Feature", "properties": { "Name": "Mauthausen" }, "geometry": { "type": "Point", "coordinates": [ 14.5327, 48.2428 ] } },
{ "type": "Feature", "properties": { "Name": "Friedburg" }, "geometry": { "type": "Point", "coordinates": [ 13.2343, 47.997 ] } },
{ "type": "Feature", "properties": { "Name": "Timelkam" }, "geometry": { "type": "Point", "coordinates": [ 13.5959, 48.0079 ] } },
{ "type": "Feature", "properties": { "Name": "Obernberg-Altheim" }, "geometry": { "type": "Point", "coordinates": [ 13.2578, 48.2705 ] } },
{ "type": "Feature", "properties": { "Name": "Piesting" }, "geometry": { "type": "Point", "coordinates": [ 16.1248, 47.8748 ] } },
{ "type": "Feature", "properties": { "Name": "Oberpiesting" }, "geometry": { "type": "Point", "coordinates": [ 16.0977, 47.8746 ] } },
{ "type": "Feature", "properties": { "Name": "Bad Erlach" }, "geometry": { "type": "Point", "coordinates": [ 16.2117, 47.7319 ] } },
{ "type": "Feature", "properties": { "Name": null }, "geometry": { "type": "Point", "coordinates": [ 16.6749, 48.4916 ] } },
{ "type": "Feature", "properties": { "Name": "Frohnleiten" }, "geometry": { "type": "Point", "coordinates": [ 15.327, 47.2663 ] } },
{ "type": "Feature", "properties": { "Name": "Ternberg" }, "geometry": { "type": "Point", "coordinates": [ 14.3549, 47.9492 ] } },
{ "type": "Feature", "properties": { "Name": "Großraming" }, "geometry": { "type": "Point", "coordinates": [ 14.5513, 47.8822 ] } },
{ "type": "Feature", "properties": { "Name": "Gstatterboden im Nationalpark" }, "geometry": { "type": "Point", "coordinates": [ 14.6336, 47.5914 ] } },
{ "type": "Feature", "properties": { "Name": "Hieflau" }, "geometry": { "type": "Point", "coordinates": [ 14.7375, 47.6079 ] } },
{ "type": "Feature", "properties": { "Name": "Munderfing" }, "geometry": { "type": "Point", "coordinates": [ 13.1803, 48.0731 ] } },
{ "type": "Feature", "properties": { "Name": "Mattighofen" }, "geometry": { "type": "Point", "coordinates": [ 13.1523, 48.1088 ] } },
{ "type": "Feature", "properties": { "Name": "Grieskirchen-Gallspach" }, "geometry": { "type": "Point", "coordinates": [ 13.839, 48.2311 ] } },
{ "type": "Feature", "properties": { "Name": "Hirschwang" }, "geometry": { "type": "Point", "coordinates": [ 15.8161, 47.7071 ] } },
{ "type": "Feature", "properties": { "Name": "Reichenau" }, "geometry": { "type": "Point", "coordinates": [ 15.8394, 47.698 ] } },
{ "type": "Feature", "properties": { "Name": "Schärding" }, "geometry": { "type": "Point", "coordinates": [ 13.4425, 48.4638 ] } },
{ "type": "Feature", "properties": { "Name": "Taufkirchen an der Pram" }, "geometry": { "type": "Point", "coordinates": [ 13.5223, 48.407 ] } },
{ "type": "Feature", "properties": { "Name": "Andorf" }, "geometry": { "type": "Point", "coordinates": [ 13.5658, 48.3699 ] } },
{ "type": "Feature", "properties": { "Name": "Haiding" }, "geometry": { "type": "Point", "coordinates": [ 13.9751, 48.2095 ] } },
{ "type": "Feature", "properties": { "Name": "Dürnstein-Oberloiben" }, "geometry": { "type": "Point", "coordinates": [ 15.5253, 48.3933 ] } },
{ "type": "Feature", "properties": { "Name": "Großhollenstein" }, "geometry": { "type": "Point", "coordinates": [ 14.7716, 47.8066 ] } },
{ "type": "Feature", "properties": { "Name": "Baumgartner" }, "geometry": { "type": "Point", "coordinates": [ 15.8508, 47.7535 ] } },
{ "type": "Feature", "properties": { "Name": "Hauslitzsattel" }, "geometry": { "type": "Point", "coordinates": [ 15.8911, 47.7691 ] } },
{ "type": "Feature", "properties": { "Name": "Lunz am See" }, "geometry": { "type": "Point", "coordinates": [ 15.0222, 47.8565 ] } },
{ "type": "Feature", "properties": { "Name": "Bad Sauerbrunn" }, "geometry": { "type": "Point", "coordinates": [ 16.3247, 47.774 ] } },
{ "type": "Feature", "properties": { "Name": "Neudörfl" }, "geometry": { "type": "Point", "coordinates": [ 16.3006, 47.7937 ] } },
{ "type": "Feature", "properties": { "Name": "Reichraming" }, "geometry": { "type": "Point", "coordinates": [ 14.473, 47.8914 ] } },
{ "type": "Feature", "properties": { "Name": "Präbichl" }, "geometry": { "type": "Point", "coordinates": [ 14.9512, 47.5208 ] } },
{ "type": "Feature", "properties": { "Name": "Mitterdorf-Veitsch" }, "geometry": { "type": "Point", "coordinates": [ 15.5133, 47.5368 ] } },
{ "type": "Feature", "properties": { "Name": "Westbahnhof" }, "geometry": { "type": "Point", "coordinates": [ 16.3393, 48.1968 ] } },
{ "type": "Feature", "properties": { "Name": "Hallwang-Elixhausen" }, "geometry": { "type": "Point", "coordinates": [ 13.0918, 47.8579 ] } },
{ "type": "Feature", "properties": { "Name": "Greifenburg-Weißensee" }, "geometry": { "type": "Point", "coordinates": [ 13.1911, 46.7412 ] } },
{ "type": "Feature", "properties": { "Name": "Sattledt" }, "geometry": { "type": "Point", "coordinates": [ 14.0579, 48.0741 ] } },
{ "type": "Feature", "properties": { "Name": "Steinhaus bei Wels" }, "geometry": { "type": "Point", "coordinates": [ 14.0179, 48.1193 ] } },
{ "type": "Feature", "properties": { "Name": "Parndorf" }, "geometry": { "type": "Point", "coordinates": [ 16.8707, 47.9869 ] } },
{ "type": "Feature", "properties": { "Name": "Seebenstein" }, "geometry": { "type": "Point", "coordinates": [ 16.1428, 47.7033 ] } },
{ "type": "Feature", "properties": { "Name": "Bad Pirawarth" }, "geometry": { "type": "Point", "coordinates": [ 16.6057, 48.4486 ] } },
{ "type": "Feature", "properties": { "Name": "Langen am Arlberg" }, "geometry": { "type": "Point", "coordinates": [ 10.1212, 47.1316 ] } },
{ "type": "Feature", "properties": { "Name": "Piesendorf" }, "geometry": { "type": "Point", "coordinates": [ 12.7233, 47.2905 ] } },
{ "type": "Feature", "properties": { "Name": "Bürmoos" }, "geometry": { "type": "Point", "coordinates": [ 12.9253, 47.9819 ] } },
{ "type": "Feature", "properties": { "Name": "Unterfladnitz" }, "geometry": { "type": "Point", "coordinates": [ 15.6673, 47.1796 ] } },
{ "type": "Feature", "properties": { "Name": "Lannach" }, "geometry": { "type": "Point", "coordinates": [ 15.3345, 46.9409 ] } },
{ "type": "Feature", "properties": { "Name": "Preding-Wieselsdorf" }, "geometry": { "type": "Point", "coordinates": [ 15.3817, 46.8582 ] } },
{ "type": "Feature", "properties": { "Name": "Frauental-Bad Gams" }, "geometry": { "type": "Point", "coordinates": [ 15.2556, 46.8239 ] } },
{ "type": "Feature", "properties": { "Name": "Groß St. Florian" }, "geometry": { "type": "Point", "coordinates": [ 15.318, 46.8209 ] } },
{ "type": "Feature", "properties": { "Name": "Kötschach-Mauthen" }, "geometry": { "type": "Point", "coordinates": [ 13.0031, 46.6712 ] } },
{ "type": "Feature", "properties": { "Name": "Dellach im Gailtal" }, "geometry": { "type": "Point", "coordinates": [ 13.0813, 46.6581 ] } },
{ "type": "Feature", "properties": { "Name": "Gundersheim" }, "geometry": { "type": "Point", "coordinates": [ 13.1187, 46.6453 ] } },
{ "type": "Feature", "properties": { "Name": "Kirchbach im Gailtal" }, "geometry": { "type": "Point", "coordinates": [ 13.183, 46.6378 ] } },
{ "type": "Feature", "properties": { "Name": "Rattendorf-Jenig" }, "geometry": { "type": "Point", "coordinates": [ 13.2538, 46.6272 ] } },
{ "type": "Feature", "properties": { "Name": "Hermagor" }, "geometry": { "type": "Point", "coordinates": [ 13.3756, 46.6263 ] } },
{ "type": "Feature", "properties": { "Name": "St. Stefan-Vorderberg" }, "geometry": { "type": "Point", "coordinates": [ 13.5336, 46.6003 ] } },
{ "type": "Feature", "properties": { "Name": "Schruns" }, "geometry": { "type": "Point", "coordinates": [ 9.9173, 47.0797 ] } },
{ "type": "Feature", "properties": { "Name": "Vöcklamarkt Lokalbf" }, "geometry": { "type": "Point", "coordinates": [ 13.4896, 47.9979 ] } },
{ "type": "Feature", "properties": { "Name": "Attersee" }, "geometry": { "type": "Point", "coordinates": [ 13.5342, 47.9144 ] } },
{ "type": "Feature", "properties": { "Name": "Laßnitzthal" }, "geometry": { "type": "Point", "coordinates": [ 15.6564, 47.0882 ] } },
{ "type": "Feature", "properties": { "Name": "Regelsbrunn" }, "geometry": { "type": "Point", "coordinates": [ 16.7806, 48.107 ] } },
{ "type": "Feature", "properties": { "Name": "Purgstall an der Erlauf" }, "geometry": { "type": "Point", "coordinates": [ 15.1311, 48.059 ] } },
{ "type": "Feature", "properties": { "Name": "Loipersbach-Schattendorf" }, "geometry": { "type": "Point", "coordinates": [ 16.4919, 47.7007 ] } },
{ "type": "Feature", "properties": { "Name": "St. Veit an der Gölsen" }, "geometry": { "type": "Point", "coordinates": [ 15.6722, 48.045 ] } },
{ "type": "Feature", "properties": { "Name": "Gnas" }, "geometry": { "type": "Point", "coordinates": [ 15.8312, 46.8844 ] } },
{ "type": "Feature", "properties": { "Name": "Maierdorf" }, "geometry": { "type": "Point", "coordinates": [ 15.8547, 46.8871 ] } },
{ "type": "Feature", "properties": { "Name": "Bad Gleichenberg" }, "geometry": { "type": "Point", "coordinates": [ 15.9035, 46.8716 ] } },
{ "type": "Feature", "properties": { "Name": "Wieselburg" }, "geometry": { "type": "Point", "coordinates": [ 15.142, 48.1318 ] } },
{ "type": "Feature", "properties": { "Name": "Köflach" }, "geometry": { "type": "Point", "coordinates": [ 15.0827, 47.0615 ] } },
{ "type": "Feature", "properties": { "Name": "Weißenbach-St. Gallen" }, "geometry": { "type": "Point", "coordinates": [ 14.6355, 47.7143 ] } },
{ "type": "Feature", "properties": { "Name": "Altweitra" }, "geometry": { "type": "Point", "coordinates": [ 14.9048, 48.7225 ] } },
{ "type": "Feature", "properties": { "Name": "Bichlbach-Berwang" }, "geometry": { "type": "Point", "coordinates": [ 10.7933, 47.4213 ] } },
{ "type": "Feature", "properties": { "Name": "Lermoos" }, "geometry": { "type": "Point", "coordinates": [ 10.8789, 47.4054 ] } },
{ "type": "Feature", "properties": { "Name": "Bergheim" }, "geometry": { "type": "Point", "coordinates": [ 13.021, 47.8393 ] } },
{ "type": "Feature", "properties": { "Name": "Schlachthof" }, "geometry": { "type": "Point", "coordinates": [ 13.0126, 47.8459 ] } },
{ "type": "Feature", "properties": { "Name": "Oberndorf" }, "geometry": { "type": "Point", "coordinates": [ 12.9438, 47.9415 ] } },
{ "type": "Feature", "properties": { "Name": "Weitwörth-Nußdorf" }, "geometry": { "type": "Point", "coordinates": [ 12.966, 47.924 ] } },
{ "type": "Feature", "properties": { "Name": "Bruck-Fusch" }, "geometry": { "type": "Point", "coordinates": [ 12.8284, 47.2846 ] } },
{ "type": "Feature", "properties": { "Name": "Salzburg Hbf (Lokalbahn)" }, "geometry": { "type": "Point", "coordinates": [ 13.0445, 47.8128 ] } },
{ "type": "Feature", "properties": { "Name": "Salzburg Itzling" }, "geometry": { "type": "Point", "coordinates": [ 13.041, 47.8191 ] } },
{ "type": "Feature", "properties": { "Name": "Ramsau-Hippach" }, "geometry": { "type": "Point", "coordinates": [ 11.8698, 47.2052 ] } },
{ "type": "Feature", "properties": { "Name": "Weyer an der Enns" }, "geometry": { "type": "Point", "coordinates": [ 14.6673, 47.8618 ] } },
{ "type": "Feature", "properties": { "Name": "Oberland" }, "geometry": { "type": "Point", "coordinates": [ 14.7485, 47.9038 ] } },
{ "type": "Feature", "properties": { "Name": "Mank" }, "geometry": { "type": "Point", "coordinates": [ 15.3454, 48.1116 ] } },
{ "type": "Feature", "properties": { "Name": "Kilb" }, "geometry": { "type": "Point", "coordinates": [ 15.4055, 48.1027 ] } },
{ "type": "Feature", "properties": { "Name": "Erlauf" }, "geometry": { "type": "Point", "coordinates": [ 15.1821, 48.1837 ] } },
{ "type": "Feature", "properties": { "Name": "Zell am Ziller" }, "geometry": { "type": "Point", "coordinates": [ 11.8814, 47.2314 ] } },
{ "type": "Feature", "properties": { "Name": "Kaltenbach-Stumm im Zillertal" }, "geometry": { "type": "Point", "coordinates": [ 11.876, 47.2923 ] } },
{ "type": "Feature", "properties": { "Name": "Gschwandt-Rabesberg" }, "geometry": { "type": "Point", "coordinates": [ 13.8459, 47.9319 ] } },
{ "type": "Feature", "properties": { "Name": "Steinbach-Großpertholz" }, "geometry": { "type": "Point", "coordinates": [ 14.8421, 48.6403 ] } },
{ "type": "Feature", "properties": { "Name": "Oed" }, "geometry": { "type": "Point", "coordinates": [ 16.0262, 47.8787 ] } },
{ "type": "Feature", "properties": { "Name": "Gutenstein" }, "geometry": { "type": "Point", "coordinates": [ 15.9108, 47.8769 ] } },
{ "type": "Feature", "properties": { "Name": "Lilienfeld" }, "geometry": { "type": "Point", "coordinates": [ 15.5931, 48.0137 ] } },
{ "type": "Feature", "properties": { "Name": "Stoob" }, "geometry": { "type": "Point", "coordinates": [ 16.47, 47.5287 ] } },
{ "type": "Feature", "properties": { "Name": "Weitra" }, "geometry": { "type": "Point", "coordinates": [ 14.9015, 48.7005 ] } },
{ "type": "Feature", "properties": { "Name": "Gmünd NÖ (Lokalbahn)" }, "geometry": { "type": "Point", "coordinates": [ 14.9835, 48.765 ] } },
{ "type": "Feature", "properties": { "Name": "Langwies" }, "geometry": { "type": "Point", "coordinates": [ 13.7054, 47.7568 ] } },
{ "type": "Feature", "properties": { "Name": "Aurachkirchen" }, "geometry": { "type": "Point", "coordinates": [ 13.7454, 47.9682 ] } },
{ "type": "Feature", "properties": { "Name": null }, "geometry": { "type": "Point", "coordinates": [ 13.1862, 47.4833 ] } },
{ "type": "Feature", "properties": { "Name": null }, "geometry": { "type": "Point", "coordinates": [ 13.188, 47.4829 ] } },
{ "type": "Feature", "properties": { "Name": "Mauerkirchen" }, "geometry": { "type": "Point", "coordinates": [ 13.1288, 48.1917 ] } },
{ "type": "Feature", "properties": { "Name": "Anger" }, "geometry": { "type": "Point", "coordinates": [ 15.699, 47.2707 ] } },
{ "type": "Feature", "properties": { "Name": "Oberschützen" }, "geometry": { "type": "Point", "coordinates": [ 16.2123, 47.3487 ] } },
{ "type": "Feature", "properties": { "Name": "Bad Tatzmannsdorf" }, "geometry": { "type": "Point", "coordinates": [ 16.2217, 47.3358 ] } },
{ "type": "Feature", "properties": { "Name": "Enzesfeld-Lindabrunn" }, "geometry": { "type": "Point", "coordinates": [ 16.1876, 47.9213 ] } },
{ "type": "Feature", "properties": { "Name": "St. Nikola-Struden" }, "geometry": { "type": "Point", "coordinates": [ 14.9091, 48.2335 ] } },
{ "type": "Feature", "properties": { "Name": "Sarmingstein" }, "geometry": { "type": "Point", "coordinates": [ 14.944, 48.2295 ] } },
{ "type": "Feature", "properties": { "Name": "Ramingstein Thomatal" }, "geometry": { "type": "Point", "coordinates": [ 13.8305, 47.0753 ] } },
{ "type": "Feature", "properties": { "Name": "Murau-Stolzalpe" }, "geometry": { "type": "Point", "coordinates": [ 14.1739, 47.1089 ] } },
{ "type": "Feature", "properties": { "Name": "Triebendorf" }, "geometry": { "type": "Point", "coordinates": [ 14.2456, 47.1282 ] } },
{ "type": "Feature", "properties": { "Name": "Frojach-Katschtal" }, "geometry": { "type": "Point", "coordinates": [ 14.3049, 47.1327 ] } },
{ "type": "Feature", "properties": { "Name": "Teufenbach" }, "geometry": { "type": "Point", "coordinates": [ 14.3623, 47.135 ] } },
{ "type": "Feature", "properties": { "Name": "Niederwölz-Oberwölz" }, "geometry": { "type": "Point", "coordinates": [ 14.3752, 47.1462 ] } },
{ "type": "Feature", "properties": { "Name": "Stadl an der Mur" }, "geometry": { "type": "Point", "coordinates": [ 13.9815, 47.0848 ] } },
{ "type": "Feature", "properties": { "Name": "Mariapfarr" }, "geometry": { "type": "Point", "coordinates": [ 13.7433, 47.1407 ] } },
{ "type": "Feature", "properties": { "Name": "Mauterndorf" }, "geometry": { "type": "Point", "coordinates": [ 13.6844, 47.1302 ] } },
{ "type": "Feature", "properties": { "Name": "Hausruck" }, "geometry": { "type": "Point", "coordinates": [ 13.5716, 48.1296 ] } },
{ "type": "Feature", "properties": { "Name": "Waizenkirchen" }, "geometry": { "type": "Point", "coordinates": [ 13.853, 48.3305 ] } },
{ "type": "Feature", "properties": { "Name": "Großpetersdorf" }, "geometry": { "type": "Point", "coordinates": [ 16.3256, 47.235 ] } },
{ "type": "Feature", "properties": { "Name": "Gaming" }, "geometry": { "type": "Point", "coordinates": [ 15.0859, 47.9289 ] } },
{ "type": "Feature", "properties": { "Name": "Pfaffenschlag" }, "geometry": { "type": "Point", "coordinates": [ 15.0165, 47.8965 ] } },
{ "type": "Feature", "properties": { "Name": "Reutte in Tirol" }, "geometry": { "type": "Point", "coordinates": [ 10.7216, 47.4931 ] } },
{ "type": "Feature", "properties": { "Name": "Ebensee" }, "geometry": { "type": "Point", "coordinates": [ 13.7717, 47.8045 ] } },
{ "type": "Feature", "properties": { "Name": "Grünbach am Schneeberg" }, "geometry": { "type": "Point", "coordinates": [ 15.998, 47.7975 ] } },
{ "type": "Feature", "properties": { "Name": "Linz Urfahr" }, "geometry": { "type": "Point", "coordinates": [ 14.2796, 48.312 ] } },
{ "type": "Feature", "properties": { "Name": "Deutschkreutz" }, "geometry": { "type": "Point", "coordinates": [ 16.6202, 47.6039 ] } },
{ "type": "Feature", "properties": { "Name": "Wies-Eibiswald" }, "geometry": { "type": "Point", "coordinates": [ 15.2593, 46.7184 ] } },
{ "type": "Feature", "properties": { "Name": "Rohrbach-Vorau" }, "geometry": { "type": "Point", "coordinates": [ 15.9858, 47.3912 ] } },
{ "type": "Feature", "properties": { "Name": "Wittmannsdorf NÖ" }, "geometry": { "type": "Point", "coordinates": [ 16.2201, 47.9202 ] } },
{ "type": "Feature", "properties": { "Name": "Vöcklabruck" }, "geometry": { "type": "Point", "coordinates": [ 13.6638, 48.0101 ] } },
{ "type": "Feature", "properties": { "Name": "Großweikersdorf" }, "geometry": { "type": "Point", "coordinates": [ 15.9761, 48.4691 ] } },
{ "type": "Feature", "properties": { "Name": "Payerbach Lokalbahn" }, "geometry": { "type": "Point", "coordinates": [ 15.8593, 47.6961 ] } },
{ "type": "Feature", "properties": { "Name": "Spital am Pyhrn" }, "geometry": { "type": "Point", "coordinates": [ 14.3475, 47.6733 ] } },
{ "type": "Feature", "properties": { "Name": "Rechnitz" }, "geometry": { "type": "Point", "coordinates": [ 16.4462, 47.2813 ] } },
{ "type": "Feature", "properties": { "Name": "Wildon" }, "geometry": { "type": "Point", "coordinates": [ 15.521, 46.884 ] } },
{ "type": "Feature", "properties": { "Name": "Schützen am Gebirge" }, "geometry": { "type": "Point", "coordinates": [ 16.6188, 47.8481 ] } },
{ "type": "Feature", "properties": { "Name": "Linz Wegscheid" }, "geometry": { "type": "Point", "coordinates": [ 14.2756, 48.2496 ] } },
{ "type": "Feature", "properties": { "Name": "Scheibbs" }, "geometry": { "type": "Point", "coordinates": [ 15.1645, 48.005 ] } },
{ "type": "Feature", "properties": { "Name": "Weizelsdorf" }, "geometry": { "type": "Point", "coordinates": [ 14.2434, 46.5395 ] } },
{ "type": "Feature", "properties": { "Name": "St. Martin im Sulmtal-Bergla" }, "geometry": { "type": "Point", "coordinates": [ 15.2848, 46.7483 ] } },
{ "type": "Feature", "properties": { "Name": "Eisengattern" }, "geometry": { "type": "Point", "coordinates": [ 13.8805, 47.9525 ] } },
{ "type": "Feature", "properties": { "Name": "Kirchham b.Vorchdorf" }, "geometry": { "type": "Point", "coordinates": [ 13.8989, 47.9758 ] } },
{ "type": "Feature", "properties": { "Name": "Nettingsdorf" }, "geometry": { "type": "Point", "coordinates": [ 14.2585, 48.1896 ] } },
{ "type": "Feature", "properties": { "Name": "Meidling Hauptstraße" }, "geometry": { "type": "Point", "coordinates": [ 16.3281, 48.1836 ] } },
{ "type": "Feature", "properties": { "Name": "Allentsteig" }, "geometry": { "type": "Point", "coordinates": [ 15.3303, 48.7157 ] } },
{ "type": "Feature", "properties": { "Name": "Wettmannstätten" }, "geometry": { "type": "Point", "coordinates": [ 15.3809, 46.8373 ] } },
{ "type": "Feature", "properties": { "Name": "Takern-St. Margarethen" }, "geometry": { "type": "Point", "coordinates": [ 15.7577, 47.0457 ] } },
{ "type": "Feature", "properties": { "Name": "Prambachkirchen-Bad Weinberg" }, "geometry": { "type": "Point", "coordinates": [ 13.9011, 48.3154 ] } },
{ "type": "Feature", "properties": { "Name": "Kufstein" }, "geometry": { "type": "Point", "coordinates": [ 12.1657, 47.583 ] } },
{ "type": "Feature", "properties": { "Name": "Mayrhofen im Zillertal" }, "geometry": { "type": "Point", "coordinates": [ 11.8624, 47.1695 ] } },
{ "type": "Feature", "properties": { "Name": "Spielfeld-Straß" }, "geometry": { "type": "Point", "coordinates": [ 15.6292, 46.7096 ] } },
{ "type": "Feature", "properties": { "Name": "Thörl-Maglern" }, "geometry": { "type": "Point", "coordinates": [ 13.6484, 46.5403 ] } },
{ "type": "Feature", "properties": { "Name": "Görtschach-Förolach" }, "geometry": { "type": "Point", "coordinates": [ 13.4709, 46.623 ] } },
{ "type": "Feature", "properties": { "Name": "Litschau" }, "geometry": { "type": "Point", "coordinates": [ 15.0443, 48.9419 ] } },
{ "type": "Feature", "properties": { "Name": "Pottenstein an der Triesting" }, "geometry": { "type": "Point", "coordinates": [ 16.0894, 47.9615 ] } },
{ "type": "Feature", "properties": { "Name": "Berghaus Hochschneeberg" }, "geometry": { "type": "Point", "coordinates": [ 15.8342, 47.7606 ] } },
{ "type": "Feature", "properties": { "Name": "Alser Straße" }, "geometry": { "type": "Point", "coordinates": [ 16.3418, 48.2168 ] } },
{ "type": "Feature", "properties": { "Name": "Josefstädter Straße" }, "geometry": { "type": "Point", "coordinates": [ 16.3391, 48.2115 ] } },
{ "type": "Feature", "properties": { "Name": "Michelbeuern-AKH" }, "geometry": { "type": "Point", "coordinates": [ 16.3443, 48.2213 ] } },
{ "type": "Feature", "properties": { "Name": "Nußdorfer Straße" }, "geometry": { "type": "Point", "coordinates": [ 16.3525, 48.2314 ] } },
{ "type": "Feature", "properties": { "Name": "Thaliastraße" }, "geometry": { "type": "Point", "coordinates": [ 16.338, 48.2078 ] } },
{ "type": "Feature", "properties": { "Name": "Währinger Straße-Volksoper" }, "geometry": { "type": "Point", "coordinates": [ 16.3495, 48.2256 ] } },
{ "type": "Feature", "properties": { "Name": "Schwedenplatz" }, "geometry": { "type": "Point", "coordinates": [ 16.3781, 48.2118 ] } },
{ "type": "Feature", "properties": { "Name": "Bruckberg Golfplatz" }, "geometry": { "type": "Point", "coordinates": [ 12.776, 47.2946 ] } },
{ "type": "Feature", "properties": { "Name": "Steyrermühl" }, "geometry": { "type": "Point", "coordinates": [ 13.8039, 47.9968 ] } },
{ "type": "Feature", "properties": { "Name": "Haag" }, "geometry": { "type": "Point", "coordinates": [ 14.5902, 48.0949 ] } },
{ "type": "Feature", "properties": { "Name": "Puchberg am Schneeberg" }, "geometry": { "type": "Point", "coordinates": [ 15.9103, 47.7904 ] } },
{ "type": "Feature", "properties": { "Name": "Puchberg am Schneeberg" }, "geometry": { "type": "Point", "coordinates": [ 15.9102, 47.7905 ] } },
{ "type": "Feature", "properties": { "Name": "Bludenz" }, "geometry": { "type": "Point", "coordinates": [ 9.8149, 47.1547 ] } },
{ "type": "Feature", "properties": { "Name": "Ramingdorf-Haidershofen" }, "geometry": { "type": "Point", "coordinates": [ 14.4594, 48.0679 ] } },
{ "type": "Feature", "properties": { "Name": "Feuerwerksanstalt" }, "geometry": { "type": "Point", "coordinates": [ 16.1893, 47.8487 ] } },
{ "type": "Feature", "properties": { "Name": "Scheiblingkirchen-Warth" }, "geometry": { "type": "Point", "coordinates": [ 16.131, 47.6623 ] } },
{ "type": "Feature", "properties": { "Name": "Eben im Pongau" }, "geometry": { "type": "Point", "coordinates": [ 13.3966, 47.4065 ] } },
{ "type": "Feature", "properties": { "Name": "Ostermiething" }, "geometry": { "type": "Point", "coordinates": [ 12.8458, 48.044 ] } },
{ "type": "Feature", "properties": { "Name": "Bezau" }, "geometry": { "type": "Point", "coordinates": [ 9.8963, 47.3821 ] } },
{ "type": "Feature", "properties": { "Name": "Stadion" }, "geometry": { "type": "Point", "coordinates": [ 16.4204, 48.2104 ] } },
{ "type": "Feature", "properties": { "Name": "Stadion" }, "geometry": { "type": "Point", "coordinates": [ 16.4205, 48.2105 ] } },
{ "type": "Feature", "properties": { "Name": "Pram-Haag" }, "geometry": { "type": "Point", "coordinates": [ 13.618, 48.2318 ] } },
{ "type": "Feature", "properties": { "Name": "Mittelstation Reisenhof" }, "geometry": { "type": "Point", "coordinates": [ 15.1979, 48.1342 ] } },
{ "type": "Feature", "properties": { "Name": "Ruprechtshofen" }, "geometry": { "type": "Point", "coordinates": [ 15.2734, 48.1382 ] } },
{ "type": "Feature", "properties": { "Name": "Steinfeld im Drautal" }, "geometry": { "type": "Point", "coordinates": [ 13.2598, 46.7527 ] } },
{ "type": "Feature", "properties": { "Name": "Dellach im Drautal" }, "geometry": { "type": "Point", "coordinates": [ 13.0754, 46.7357 ] } },
{ "type": "Feature", "properties": { "Name": "Oberdrauburg" }, "geometry": { "type": "Point", "coordinates": [ 12.9738, 46.7463 ] } },
{ "type": "Feature", "properties": { "Name": "Möllbrücke-Sachsenburg" }, "geometry": { "type": "Point", "coordinates": [ 13.3682, 46.8307 ] } },
{ "type": "Feature", "properties": { "Name": "Kleblach-Lind" }, "geometry": { "type": "Point", "coordinates": [ 13.3415, 46.7708 ] } },
{ "type": "Feature", "properties": { "Name": "Serfaus Parkplatz" }, "geometry": { "type": "Point", "coordinates": [ 10.6143, 47.0385 ] } },
{ "type": "Feature", "properties": { "Name": "Mistelbach Lokalbahn" }, "geometry": { "type": "Point", "coordinates": [ 16.5656, 48.563 ] } },
{ "type": "Feature", "properties": { "Name": "Steinbachbrücke" }, "geometry": { "type": "Point", "coordinates": [ 13.9931, 47.9323 ] } },
{ "type": "Feature", "properties": { "Name": "Loich" }, "geometry": { "type": "Point", "coordinates": [ 15.392, 48.012 ] } },
{ "type": "Feature", "properties": { "Name": "Wien Hernals" }, "geometry": { "type": "Point", "coordinates": [ 16.3148, 48.2233 ] } },
{ "type": "Feature", "properties": { "Name": "Wien Penzing" }, "geometry": { "type": "Point", "coordinates": [ 16.3049, 48.1927 ] } },
{ "type": "Feature", "properties": { "Name": "Wien Hauptbahnhof" }, "geometry": { "type": "Point", "coordinates": [ 16.3779, 48.185 ] } },
{ "type": "Feature", "properties": { "Name": "Reumannplatz" }, "geometry": { "type": "Point", "coordinates": [ 16.378, 48.1748 ] } },
{ "type": "Feature", "properties": { "Name": "Schachendorf" }, "geometry": { "type": "Point", "coordinates": [ 16.43, 47.2627 ] } },
{ "type": "Feature", "properties": { "Name": "Rekawinkel" }, "geometry": { "type": "Point", "coordinates": [ 16.0317, 48.1798 ] } },
{ "type": "Feature", "properties": { "Name": "Böheimkirchen" }, "geometry": { "type": "Point", "coordinates": [ 15.754, 48.2 ] } },
{ "type": "Feature", "properties": { "Name": "Schönwies" }, "geometry": { "type": "Point", "coordinates": [ 10.6607, 47.1972 ] } },
{ "type": "Feature", "properties": { "Name": "Haag am Hausruck" }, "geometry": { "type": "Point", "coordinates": [ 13.6475, 48.1833 ] } },
{ "type": "Feature", "properties": { "Name": "Weins-Ysperdorf" }, "geometry": { "type": "Point", "coordinates": [ 15.023, 48.1959 ] } },
{ "type": "Feature", "properties": { "Name": "Perg" }, "geometry": { "type": "Point", "coordinates": [ 14.6269, 48.2477 ] } },
{ "type": "Feature", "properties": { "Name": "Rathaus" }, "geometry": { "type": "Point", "coordinates": [ 16.3555, 48.2107 ] } },
{ "type": "Feature", "properties": { "Name": "Alaudagasse" }, "geometry": { "type": "Point", "coordinates": [ 16.3823, 48.1536 ] } },
{ "type": "Feature", "properties": { "Name": "Altes Landgut" }, "geometry": { "type": "Point", "coordinates": [ 16.3832, 48.162 ] } },
{ "type": "Feature", "properties": { "Name": "Neulaa" }, "geometry": { "type": "Point", "coordinates": [ 16.3865, 48.1455 ] } },
{ "type": "Feature", "properties": { "Name": "Oberlaa" }, "geometry": { "type": "Point", "coordinates": [ 16.4008, 48.1421 ] } },
{ "type": "Feature", "properties": { "Name": "Spittal-Millstättersee" }, "geometry": { "type": "Point", "coordinates": [ 13.4876, 46.7957 ] } },
{ "type": "Feature", "properties": { "Name": "Raiding-Lackendorf" }, "geometry": { "type": "Point", "coordinates": [ 16.5162, 47.5849 ] } },
{ "type": "Feature", "properties": { "Name": null }, "geometry": { "type": "Point", "coordinates": [ 11.0048, 46.9639 ] } },
{ "type": "Feature", "properties": { "Name": null }, "geometry": { "type": "Point", "coordinates": [ 11.0048, 46.964 ] } },
{ "type": "Feature", "properties": { "Name": null }, "geometry": { "type": "Point", "coordinates": [ 11.0066, 46.9657 ] } },
{ "type": "Feature", "properties": { "Name": null }, "geometry": { "type": "Point", "coordinates": [ 11.0066, 46.9657 ] } },
{ "type": "Feature", "properties": { "Name": "Weitersfeld an der Mur" }, "geometry": { "type": "Point", "coordinates": [ 15.7216, 46.7147 ] } },
{ "type": "Feature", "properties": { "Name": "Mallnitz-Obervellach" }, "geometry": { "type": "Point", "coordinates": [ 13.1761, 46.9819 ] } },
{ "type": "Feature", "properties": { "Name": "Kremsmünster" }, "geometry": { "type": "Point", "coordinates": [ 14.1402, 48.053 ] } },
{ "type": "Feature", "properties": { "Name": "Brixlegg" }, "geometry": { "type": "Point", "coordinates": [ 11.8805, 47.4349 ] } },
{ "type": "Feature", "properties": { "Name": "Karnabrunn" }, "geometry": { "type": "Point", "coordinates": [ 16.3775, 48.463 ] } },
{ "type": "Feature", "properties": { "Name": "Westbahnhof" }, "geometry": { "type": "Point", "coordinates": [ 16.339, 48.1968 ] } },
{ "type": "Feature", "properties": { "Name": "Burggasse-Stadthalle" }, "geometry": { "type": "Point", "coordinates": [ 16.3372, 48.2024 ] } },
{ "type": "Feature", "properties": { "Name": "Dresdner Straße" }, "geometry": { "type": "Point", "coordinates": [ 16.3803, 48.2373 ] } },
{ "type": "Feature", "properties": { "Name": "Jägerstraße" }, "geometry": { "type": "Point", "coordinates": [ 16.3687, 48.2351 ] } },
{ "type": "Feature", "properties": { "Name": "Neue Donau" }, "geometry": { "type": "Point", "coordinates": [ 16.3947, 48.2463 ] } },
{ "type": "Feature", "properties": { "Name": "Gumpendorfer Straße" }, "geometry": { "type": "Point", "coordinates": [ 16.3375, 48.1907 ] } },
{ "type": "Feature", "properties": { "Name": "Museumsquartier" }, "geometry": { "type": "Point", "coordinates": [ 16.3613, 48.2027 ] } },
{ "type": "Feature", "properties": { "Name": "Rathaus" }, "geometry": { "type": "Point", "coordinates": [ 16.3554, 48.2101 ] } },
{ "type": "Feature", "properties": { "Name": "Schottentor" }, "geometry": { "type": "Point", "coordinates": [ 16.363, 48.215 ] } },
{ "type": "Feature", "properties": { "Name": "Volkstheater" }, "geometry": { "type": "Point", "coordinates": [ 16.3584, 48.2049 ] } },
{ "type": "Feature", "properties": { "Name": "Großhollenstein" }, "geometry": { "type": "Point", "coordinates": [ 14.7716, 47.8066 ] } },
{ "type": "Feature", "properties": { "Name": "Wien Mitte CAT" }, "geometry": { "type": "Point", "coordinates": [ 16.3866, 48.2079 ] } },
{ "type": "Feature", "properties": { "Name": "Hardeggasse" }, "geometry": { "type": "Point", "coordinates": [ 16.4578, 48.221 ] } },
{ "type": "Feature", "properties": { "Name": "Stadlau" }, "geometry": { "type": "Point", "coordinates": [ 16.4493, 48.2197 ] } },
{ "type": "Feature", "properties": { "Name": "Donauspital" }, "geometry": { "type": "Point", "coordinates": [ 16.4661, 48.2195 ] } },
{ "type": "Feature", "properties": { "Name": "Neu-Nagelberg" }, "geometry": { "type": "Point", "coordinates": [ 14.971, 48.8214 ] } },
{ "type": "Feature", "properties": { "Name": "Altnagelberg" }, "geometry": { "type": "Point", "coordinates": [ 14.9899, 48.838 ] } },
{ "type": "Feature", "properties": { "Name": "Preding-Wieselsdorf" }, "geometry": { "type": "Point", "coordinates": [ 15.3814, 46.8576 ] } },
{ "type": "Feature", "properties": { "Name": "Aspernstraße" }, "geometry": { "type": "Point", "coordinates": [ 16.4748, 48.2226 ] } },
{ "type": "Feature", "properties": { "Name": "Donaustadtbrücke" }, "geometry": { "type": "Point", "coordinates": [ 16.4401, 48.2118 ] } },
{ "type": "Feature", "properties": { "Name": "Krieau" }, "geometry": { "type": "Point", "coordinates": [ 16.4138, 48.2147 ] } },
{ "type": "Feature", "properties": { "Name": "Erdberg" }, "geometry": { "type": "Point", "coordinates": [ 16.4141, 48.1914 ] } },
{ "type": "Feature", "properties": { "Name": "Penk" }, "geometry": { "type": "Point", "coordinates": [ 13.2577, 46.9121 ] } },
{ "type": "Feature", "properties": { "Name": "Bad Schallerbach-Wallern" }, "geometry": { "type": "Point", "coordinates": [ 13.9221, 48.2289 ] } },
{ "type": "Feature", "properties": { "Name": "Schladming" }, "geometry": { "type": "Point", "coordinates": [ 13.6781, 47.3939 ] } },
{ "type": "Feature", "properties": { "Name": "Pichl bei Schladming" }, "geometry": { "type": "Point", "coordinates": [ 13.6127, 47.3883 ] } },
{ "type": "Feature", "properties": { "Name": "Liezen" }, "geometry": { "type": "Point", "coordinates": [ 14.2411, 47.563 ] } },
{ "type": "Feature", "properties": { "Name": "Gummern" }, "geometry": { "type": "Point", "coordinates": [ 13.7673, 46.6558 ] } },
{ "type": "Feature", "properties": { "Name": "Ottakring" }, "geometry": { "type": "Point", "coordinates": [ 16.3113, 48.211 ] } },
{ "type": "Feature", "properties": { "Name": "Kendlerstraße" }, "geometry": { "type": "Point", "coordinates": [ 16.309, 48.2046 ] } },
{ "type": "Feature", "properties": { "Name": "Schweglerstraße" }, "geometry": { "type": "Point", "coordinates": [ 16.3287, 48.1975 ] } },
{ "type": "Feature", "properties": { "Name": "Johnstraße" }, "geometry": { "type": "Point", "coordinates": [ 16.3201, 48.1976 ] } },
{ "type": "Feature", "properties": { "Name": "Westbahnhof" }, "geometry": { "type": "Point", "coordinates": [ 16.3379, 48.1958 ] } },
{ "type": "Feature", "properties": { "Name": "Gänserndorf" }, "geometry": { "type": "Point", "coordinates": [ 16.7326, 48.3403 ] } },
{ "type": "Feature", "properties": { "Name": "Schwaz" }, "geometry": { "type": "Point", "coordinates": [ 11.7016, 47.3498 ] } },
{ "type": "Feature", "properties": { "Name": "Rothenthurn" }, "geometry": { "type": "Point", "coordinates": [ 13.5822, 46.7596 ] } },
{ "type": "Feature", "properties": { "Name": "Landeck-Zams" }, "geometry": { "type": "Point", "coordinates": [ 10.5784, 47.1482 ] } },
{ "type": "Feature", "properties": { "Name": "Bregenz" }, "geometry": { "type": "Point", "coordinates": [ 9.7398, 47.503 ] } },
{ "type": "Feature", "properties": { "Name": "St. Pölten Hbf" }, "geometry": { "type": "Point", "coordinates": [ 15.6247, 48.2083 ] } },
{ "type": "Feature", "properties": { "Name": "Donaumarina" }, "geometry": { "type": "Point", "coordinates": [ 16.4314, 48.2064 ] } },
{ "type": "Feature", "properties": { "Name": "Villach Hbf" }, "geometry": { "type": "Point", "coordinates": [ 13.8484, 46.6186 ] } },
{ "type": "Feature", "properties": { "Name": "Paternion-Feistritz" }, "geometry": { "type": "Point", "coordinates": [ 13.6685, 46.7116 ] } },
{ "type": "Feature", "properties": { "Name": "Ledenitzen" }, "geometry": { "type": "Point", "coordinates": [ 13.9783, 46.5578 ] } },
{ "type": "Feature", "properties": { "Name": "Neukirchen" }, "geometry": { "type": "Point", "coordinates": [ 12.2822, 47.2511 ] } },
{ "type": "Feature", "properties": { "Name": "Schottenring" }, "geometry": { "type": "Point", "coordinates": [ 16.3723, 48.2172 ] } },
{ "type": "Feature", "properties": { "Name": "Schottenring" }, "geometry": { "type": "Point", "coordinates": [ 16.372, 48.2175 ] } },
{ "type": "Feature", "properties": { "Name": "Schwedenplatz" }, "geometry": { "type": "Point", "coordinates": [ 16.378, 48.2119 ] } },
{ "type": "Feature", "properties": { "Name": "Peuerbach" }, "geometry": { "type": "Point", "coordinates": [ 13.77, 48.338 ] } },
{ "type": "Feature", "properties": { "Name": "Neumarkt-Kallham" }, "geometry": { "type": "Point", "coordinates": [ 13.7249, 48.2715 ] } },
{ "type": "Feature", "properties": { "Name": "Hallein" }, "geometry": { "type": "Point", "coordinates": [ 13.0997, 47.685 ] } },
{ "type": "Feature", "properties": { "Name": "Salzburg Aigen" }, "geometry": { "type": "Point", "coordinates": [ 13.0787, 47.7886 ] } },
{ "type": "Feature", "properties": { "Name": "Golling-Abtenau" }, "geometry": { "type": "Point", "coordinates": [ 13.1641, 47.6008 ] } },
{ "type": "Feature", "properties": { "Name": "Antiesenhofen" }, "geometry": { "type": "Point", "coordinates": [ 13.4021, 48.3476 ] } },
{ "type": "Feature", "properties": { "Name": "Bierbaum an der Safen" }, "geometry": { "type": "Point", "coordinates": [ 16.0743, 47.0979 ] } },
{ "type": "Feature", "properties": { "Name": "Pöham" }, "geometry": { "type": "Point", "coordinates": [ 13.2545, 47.4304 ] } },
{ "type": "Feature", "properties": { "Name": "St. Martin im Innkreis" }, "geometry": { "type": "Point", "coordinates": [ 13.4336, 48.2889 ] } },
{ "type": "Feature", "properties": { "Name": "Leonding Lokalbahn" }, "geometry": { "type": "Point", "coordinates": [ 14.2546, 48.2745 ] } },
{ "type": "Feature", "properties": { "Name": "Hochschneeberg" }, "geometry": { "type": "Point", "coordinates": [ 15.834, 47.7587 ] } },
{ "type": "Feature", "properties": { "Name": "Feldkirch" }, "geometry": { "type": "Point", "coordinates": [ 9.6043, 47.2409 ] } },
{ "type": "Feature", "properties": { "Name": "Purbach am Neusiedlersee" }, "geometry": { "type": "Point", "coordinates": [ 16.6986, 47.9062 ] } },
{ "type": "Feature", "properties": { "Name": null }, "geometry": { "type": "Point", "coordinates": [ 15.2557, 47.219 ] } },
{ "type": "Feature", "properties": { "Name": "Herrengasse" }, "geometry": { "type": "Point", "coordinates": [ 16.3657, 48.2093 ] } },
{ "type": "Feature", "properties": { "Name": "Aderklaaer Straße" }, "geometry": { "type": "Point", "coordinates": [ 16.4517, 48.2634 ] } },
{ "type": "Feature", "properties": { "Name": "Rennbahnweg" }, "geometry": { "type": "Point", "coordinates": [ 16.4497, 48.2576 ] } },
{ "type": "Feature", "properties": { "Name": "Stubentor" }, "geometry": { "type": "Point", "coordinates": [ 16.3793, 48.2069 ] } },
{ "type": "Feature", "properties": { "Name": "Erzberg" }, "geometry": { "type": "Point", "coordinates": [ 14.9093, 47.5164 ] } },
{ "type": "Feature", "properties": { "Name": "Friesach" }, "geometry": { "type": "Point", "coordinates": [ 14.4105, 46.9536 ] } },
{ "type": "Feature", "properties": { "Name": "Wien Blumental" }, "geometry": { "type": "Point", "coordinates": [ 16.3696, 48.1396 ] } },
{ "type": "Feature", "properties": { "Name": "Wiener Neustadt Hbf" }, "geometry": { "type": "Point", "coordinates": [ 16.2337, 47.8111 ] } },
{ "type": "Feature", "properties": { "Name": "Schwarzenberg" }, "geometry": { "type": "Point", "coordinates": [ 9.8545, 47.3992 ] } },
{ "type": "Feature", "properties": { "Name": "Tullnerfeld" }, "geometry": { "type": "Point", "coordinates": [ 15.9965, 48.2951 ] } },
{ "type": "Feature", "properties": { "Name": "Gaflenz" }, "geometry": { "type": "Point", "coordinates": [ 14.7236, 47.8938 ] } },
{ "type": "Feature", "properties": { "Name": "Wien Hauptbahnhof Autoreisezug" }, "geometry": { "type": "Point", "coordinates": [ 16.3911, 48.178 ] } },
{ "type": "Feature", "properties": { "Name": "Alkoven" }, "geometry": { "type": "Point", "coordinates": [ 14.115, 48.2881 ] } },
{ "type": "Feature", "properties": { "Name": "Kirchberg-Thürnau" }, "geometry": { "type": "Point", "coordinates": [ 14.1657, 48.2752 ] } },
{ "type": "Feature", "properties": { "Name": "Eferding" }, "geometry": { "type": "Point", "coordinates": [ 14.0158, 48.303 ] } },
{ "type": "Feature", "properties": { "Name": "Niederspaching" }, "geometry": { "type": "Point", "coordinates": [ 13.8101, 48.3231 ] } },
{ "type": "Feature", "properties": { "Name": "Gmunden Seebahnhof" }, "geometry": { "type": "Point", "coordinates": [ 13.8052, 47.9163 ] } },
{ "type": "Feature", "properties": { "Name": null }, "geometry": { "type": "Point", "coordinates": [ 13.7593, 46.6634 ] } },
{ "type": "Feature", "properties": { "Name": "Hütteldorfer Straße" }, "geometry": { "type": "Point", "coordinates": [ 16.3113, 48.1997 ] } },
{ "type": "Feature", "properties": { "Name": "Mittersill" }, "geometry": { "type": "Point", "coordinates": [ 12.4811, 47.2837 ] } },
{ "type": "Feature", "properties": { "Name": "Stuhlfelden" }, "geometry": { "type": "Point", "coordinates": [ 12.5267, 47.2858 ] } },
{ "type": "Feature", "properties": { "Name": "Schüttdorf Tischlerhäusl" }, "geometry": { "type": "Point", "coordinates": [ 12.794, 47.308 ] } },
{ "type": "Feature", "properties": { "Name": "Stams" }, "geometry": { "type": "Point", "coordinates": [ 10.9797, 47.2819 ] } },
{ "type": "Feature", "properties": { "Name": "Silz" }, "geometry": { "type": "Point", "coordinates": [ 10.9369, 47.2702 ] } },
{ "type": "Feature", "properties": { "Name": "Ötztal" }, "geometry": { "type": "Point", "coordinates": [ 10.8594, 47.2386 ] } },
{ "type": "Feature", "properties": { "Name": "Roppen" }, "geometry": { "type": "Point", "coordinates": [ 10.8174, 47.2158 ] } },
{ "type": "Feature", "properties": { "Name": "Imst-Pitztal" }, "geometry": { "type": "Point", "coordinates": [ 10.7619, 47.2191 ] } },
{ "type": "Feature", "properties": { "Name": "Hall in Tirol" }, "geometry": { "type": "Point", "coordinates": [ 11.5017, 47.277 ] } },
{ "type": "Feature", "properties": { "Name": "Jenbach Zillertalbahn" }, "geometry": { "type": "Point", "coordinates": [ 11.7779, 47.388 ] } },
{ "type": "Feature", "properties": { "Name": "Fritzens-Wattens" }, "geometry": { "type": "Point", "coordinates": [ 11.5889, 47.3021 ] } },
{ "type": "Feature", "properties": { "Name": "Lustenau" }, "geometry": { "type": "Point", "coordinates": [ 9.6671, 47.4504 ] } },
{ "type": "Feature", "properties": { "Name": "Hohenems" }, "geometry": { "type": "Point", "coordinates": [ 9.6813, 47.3649 ] } },
{ "type": "Feature", "properties": { "Name": "Fraham" }, "geometry": { "type": "Point", "coordinates": [ 14.0397, 48.2875 ] } },
{ "type": "Feature", "properties": { "Name": "Hopfgarten" }, "geometry": { "type": "Point", "coordinates": [ 12.149, 47.4554 ] } },
{ "type": "Feature", "properties": { "Name": "Sillian" }, "geometry": { "type": "Point", "coordinates": [ 12.4251, 46.7456 ] } },
{ "type": "Feature", "properties": { "Name": "Abfaltersbach" }, "geometry": { "type": "Point", "coordinates": [ 12.5111, 46.7534 ] } },
{ "type": "Feature", "properties": { "Name": "Lienz" }, "geometry": { "type": "Point", "coordinates": [ 12.7714, 46.8284 ] } },
{ "type": "Feature", "properties": { "Name": "Thal" }, "geometry": { "type": "Point", "coordinates": [ 12.6707, 46.7841 ] } },
{ "type": "Feature", "properties": { "Name": "Dölsach" }, "geometry": { "type": "Point", "coordinates": [ 12.8336, 46.8148 ] } },
{ "type": "Feature", "properties": { "Name": "Innsbruck Sonnenburgerhof" }, "geometry": { "type": "Point", "coordinates": [ 11.3936, 47.2465 ] } },
{ "type": "Feature", "properties": { "Name": "Fulpmes" }, "geometry": { "type": "Point", "coordinates": [ 11.3524, 47.1556 ] } },
{ "type": "Feature", "properties": { "Name": "Bahnhof Meidling" }, "geometry": { "type": "Point", "coordinates": [ 16.3315, 48.174 ] } },
{ "type": "Feature", "properties": { "Name": "Tunnelbahn Gletscherexpress Talstation" }, "geometry": { "type": "Point", "coordinates": [ 10.8715, 46.9583 ] } },
{ "type": "Feature", "properties": { "Name": "Tunnelbahn Gletscherexpress Bergstation" }, "geometry": { "type": "Point", "coordinates": [ 10.8796, 46.927 ] } },
{ "type": "Feature", "properties": { "Name": "Natters Hölltal" }, "geometry": { "type": "Point", "coordinates": [ 11.3847, 47.2386 ] } },
{ "type": "Feature", "properties": { "Name": "Mutters" }, "geometry": { "type": "Point", "coordinates": [ 11.3784, 47.2287 ] } },
{ "type": "Feature", "properties": { "Name": "Mutters Feldeler" }, "geometry": { "type": "Point", "coordinates": [ 11.3753, 47.215 ] } },
{ "type": "Feature", "properties": { "Name": "Mutters Kreith" }, "geometry": { "type": "Point", "coordinates": [ 11.3808, 47.2026 ] } },
{ "type": "Feature", "properties": { "Name": "Telfes i. St. Ort" }, "geometry": { "type": "Point", "coordinates": [ 11.3599, 47.1652 ] } },
{ "type": "Feature", "properties": { "Name": "Telfes Luimes" }, "geometry": { "type": "Point", "coordinates": [ 11.3673, 47.1729 ] } },
{ "type": "Feature", "properties": { "Name": "Telfes Telfer Wiesen" }, "geometry": { "type": "Point", "coordinates": [ 11.386, 47.1893 ] } },
{ "type": "Feature", "properties": { "Name": "Innsbruck Stubaitalbf" }, "geometry": { "type": "Point", "coordinates": [ 11.3977, 47.2535 ] } },
{ "type": "Feature", "properties": { "Name": "Südtiroler Platz-Hauptbahnhof" }, "geometry": { "type": "Point", "coordinates": [ 16.3737, 48.1863 ] } },
{ "type": "Feature", "properties": { "Name": "Groß Gerungs" }, "geometry": { "type": "Point", "coordinates": [ 14.9601, 48.5718 ] } },
{ "type": "Feature", "properties": { "Name": "Langschlag" }, "geometry": { "type": "Point", "coordinates": [ 14.8823, 48.577 ] } },
{ "type": "Feature", "properties": { "Name": "Launsdorf-Hochosterwitz" }, "geometry": { "type": "Point", "coordinates": [ 14.4554, 46.7688 ] } },
{ "type": "Feature", "properties": { "Name": "Treibach-Althofen" }, "geometry": { "type": "Point", "coordinates": [ 14.4655, 46.8686 ] } },
{ "type": "Feature", "properties": { "Name": "Trimmelkam" }, "geometry": { "type": "Point", "coordinates": [ 12.8606, 48.0275 ] } },
{ "type": "Feature", "properties": { "Name": "St. Veit a. d. Glan" }, "geometry": { "type": "Point", "coordinates": [ 14.3672, 46.7706 ] } },
{ "type": "Feature", "properties": { "Name": "St. Veit a. d. Glan West" }, "geometry": { "type": "Point", "coordinates": [ 14.3621, 46.7626 ] } },
{ "type": "Feature", "properties": { "Name": "Maria Saal" }, "geometry": { "type": "Point", "coordinates": [ 14.3394, 46.6828 ] } },
{ "type": "Feature", "properties": { "Name": "Klagenfurt Ostbf" }, "geometry": { "type": "Point", "coordinates": [ 14.322, 46.6216 ] } },
{ "type": "Feature", "properties": { "Name": "Klagenfurt Hauptbahnhof" }, "geometry": { "type": "Point", "coordinates": [ 14.3137, 46.6157 ] } },
{ "type": "Feature", "properties": { "Name": "Feistritz im Rosental" }, "geometry": { "type": "Point", "coordinates": [ 14.1814, 46.5234 ] } },
{ "type": "Feature", "properties": { "Name": "Grafenstein" }, "geometry": { "type": "Point", "coordinates": [ 14.4595, 46.619 ] } },
{ "type": "Feature", "properties": { "Name": "Engelhof" }, "geometry": { "type": "Point", "coordinates": [ 13.8192, 47.9236 ] } },
{ "type": "Feature", "properties": { "Name": "Wien Quartier Belvedere" }, "geometry": { "type": "Point", "coordinates": [ 16.3819, 48.1881 ] } },
{ "type": "Feature", "properties": { "Name": "Wien Mitte" }, "geometry": { "type": "Point", "coordinates": [ 16.3842, 48.2056 ] } },
{ "type": "Feature", "properties": { "Name": "Wien Praterstern" }, "geometry": { "type": "Point", "coordinates": [ 16.3916, 48.2182 ] } },
{ "type": "Feature", "properties": { "Name": "Wien Floridsdorf" }, "geometry": { "type": "Point", "coordinates": [ 16.4, 48.2563 ] } },
{ "type": "Feature", "properties": { "Name": "Deutsch Wagram" }, "geometry": { "type": "Point", "coordinates": [ 16.5636, 48.3029 ] } },
{ "type": "Feature", "properties": { "Name": "Wien Leopoldau" }, "geometry": { "type": "Point", "coordinates": [ 16.4478, 48.2772 ] } },
{ "type": "Feature", "properties": { "Name": "Wien Süßenbrunn" }, "geometry": { "type": "Point", "coordinates": [ 16.4855, 48.2856 ] } },
{ "type": "Feature", "properties": { "Name": "Angern an der March" }, "geometry": { "type": "Point", "coordinates": [ 16.8265, 48.3847 ] } },
{ "type": "Feature", "properties": { "Name": "Dürnkrut" }, "geometry": { "type": "Point", "coordinates": [ 16.8607, 48.4706 ] } },
{ "type": "Feature", "properties": { "Name": "Drösing" }, "geometry": { "type": "Point", "coordinates": [ 16.8958, 48.5399 ] } },
{ "type": "Feature", "properties": { "Name": "Hohenau" }, "geometry": { "type": "Point", "coordinates": [ 16.9009, 48.5983 ] } },
{ "type": "Feature", "properties": { "Name": "Payerbach-Reichenau" }, "geometry": { "type": "Point", "coordinates": [ 15.8632, 47.6961 ] } },
{ "type": "Feature", "properties": { "Name": "Gloggnitz" }, "geometry": { "type": "Point", "coordinates": [ 15.9472, 47.6777 ] } },
{ "type": "Feature", "properties": { "Name": "Ternitz" }, "geometry": { "type": "Point", "coordinates": [ 16.0329, 47.7134 ] } },
{ "type": "Feature", "properties": { "Name": "Neunkirchen NÖ" }, "geometry": { "type": "Point", "coordinates": [ 16.0851, 47.7316 ] } },
{ "type": "Feature", "properties": { "Name": "St. Egyden" }, "geometry": { "type": "Point", "coordinates": [ 16.1468, 47.761 ] } },
{ "type": "Feature", "properties": { "Name": "Felixdorf" }, "geometry": { "type": "Point", "coordinates": [ 16.2481, 47.8875 ] } },
{ "type": "Feature", "properties": { "Name": "Bad Vöslau" }, "geometry": { "type": "Point", "coordinates": [ 16.2239, 47.9695 ] } },
{ "type": "Feature", "properties": { "Name": "Leobersdorf" }, "geometry": { "type": "Point", "coordinates": [ 16.2311, 47.9384 ] } },
{ "type": "Feature", "properties": { "Name": "Mödling" }, "geometry": { "type": "Point", "coordinates": [ 16.2958, 48.0858 ] } },
{ "type": "Feature", "properties": { "Name": "Wien Liesing" }, "geometry": { "type": "Point", "coordinates": [ 16.2843, 48.1349 ] } },
{ "type": "Feature", "properties": { "Name": "Handelskai" }, "geometry": { "type": "Point", "coordinates": [ 16.3854, 48.2417 ] } },
{ "type": "Feature", "properties": { "Name": "Raasdorf" }, "geometry": { "type": "Point", "coordinates": [ 16.5824, 48.239 ] } },
{ "type": "Feature", "properties": { "Name": "Schönfeld-Lassee" }, "geometry": { "type": "Point", "coordinates": [ 16.8072, 48.2511 ] } },
{ "type": "Feature", "properties": { "Name": "Siebenbrunn-Leopoldsdorf" }, "geometry": { "type": "Point", "coordinates": [ 16.7042, 48.2456 ] } },
{ "type": "Feature", "properties": { "Name": "Wien Zentralfriedhof" }, "geometry": { "type": "Point", "coordinates": [ 16.4261, 48.1541 ] } },
{ "type": "Feature", "properties": { "Name": "Wien Kaiserebersdorf" }, "geometry": { "type": "Point", "coordinates": [ 16.4654, 48.1462 ] } },
{ "type": "Feature", "properties": { "Name": "Schwechat" }, "geometry": { "type": "Point", "coordinates": [ 16.4814, 48.1437 ] } },